"","zip_code","id","name","is_closed","review_count","rating","price","distance","latitude","longitude","city","state","StateRate","CountyRate","CityRate","SpecialRate","CombinedRate"
"1","32440","quUUu1yRifqULPrPYBXLGQ","Gary's Southern Grill",FALSE,7,4.5,2,5453.56477881307,30.9658509492874,-85.5137278139591,"Graceville","FL",0.06,0.015,0,0,0.075
"2","32440","N_3qIPXDbknLc4N9indneA","Circle Grill",FALSE,8,4,2,5926.67765239885,30.9553775787354,-85.516731262207,"Graceville","FL",0.06,0.015,0,0,0.075
"3","32440","WxNTSQGkicRcwkS5k4YQkQ","Super Canton Chinese Restaurant",FALSE,5,4,1,6307.18308002695,30.9513893,-85.5163879,"Graceville","FL",0.06,0.015,0,0,0.075
"4","32440","6hnIO79V8m3BRtKe5cE4KQ","Grady's Seafood",FALSE,6,4,2,6034.58982746949,30.9553985595703,-85.5152282714844,"Graceville","FL",0.06,0.015,0,0,0.075
"5","32440","nBmt0GKgL_abOiNrv7TlVw","Margarita's Mexican Grill",FALSE,3,3.5,1,5355.14966647592,30.9667587280273,-85.5123519897461,"Graceville","FL",0.06,0.015,0,0,0.075
"6","32440","-sS5RWweD1EXNXwYl84OGg","Los Amigos Mexican Restaurant",FALSE,2,1.5,3,4980.85688549577,30.9636497,-85.5210571,"Graceville","FL",0.06,0.015,0,0,0.075
"7","36477","3ZOzAUWXp1l0bo4IPqAF8Q","Subway",FALSE,1,5,1,16213.7048797398,31.1132408521595,-86.0389862218875,"Samson","AL",0.04,0.02,0.03,0,0.09
"8","36442","L4JVlzN9klCHxftajT3_iQ","Sara's Big R",FALSE,18,4,1,6107.26658941498,31.0045133336413,-86.3260482767488,"Florala","AL",0.04,0.025,0.035,0,0.1
"9","36442","Pua7fOv9JkpxaZq-AbuEZQ","Ranch House Kitchen",FALSE,6,4,1,5837.27526029374,31.00619,-86.32928,"Florala","AL",0.04,0.025,0.035,0,0.1
"10","36442","dnGiM8aWvV9HF0DfAnwUbQ","Huddle House",FALSE,4,3.5,2,6016.81804500487,31.003288,-86.326758,"Florala","AL",0.04,0.025,0.035,0,0.1
"11","36442","qE6ZN3oO31IDpJGZZRtT3Q","Hardee's",FALSE,16,1.5,1,6525.61494751998,31.0043260025578,-86.3215488455078,"Florala","AL",0.04,0.025,0.035,0,0.1
"12","36442","Selw4QPamxlVxPZF69UA0w","The Little Smoke House",FALSE,1,1,1,5969.09500327367,31.0051574085133,-86.3276736438274,"Florala","AL",0.04,0.025,0.035,0,0.1
"13","37347","qoyNOaP3hs-AjLr2nvbLyw","China Buffet",FALSE,16,4.5,2,15101.4502297491,35.0403682403595,-85.6842058873634,"Kimball","TN",0.07,0.0275,0,0,0.0975
"14","37347","okPdDomJaqThaJ9EEr5REg","El Toril",FALSE,30,3.5,2,15252.8241454153,35.0417019762976,-85.6847441196442,"Kimball","TN",0.07,0.0275,0,0,0.0975
"15","37347","DRR53lnW3eLyjgO2yRVpTw","Cracker Barrel Old Country Store",FALSE,32,3,2,15007.8995199783,35.039233,-85.684208,"Kimball","TN",0.07,0.0275,0,0,0.0975
"16","37347","II3wRsbYBw_hMK6bWAQU4A","Arby's",FALSE,3,5,1,15279.4951736196,35.041262,-85.6861223,"Kimball","TN",0.07,0.0275,0,0,0.0975
"17","37347","LQI59SCUnuaTrLWrhmhWAg","Waffle House",FALSE,3,5,1,15493.8158127322,35.0435898,-85.6860513,"Kimball","TN",0.07,0.0275,0,0,0.0975
"18","37347","So2YOfbQZhWz10VJHJPZwg","Domino's Pizza",FALSE,5,4,1,15253.7354230424,35.0417378035879,-85.6846939868643,"Kimball","TN",0.07,0.0275,0,0,0.0975
"19","37347","6RtnIAcv8kvJGLZSC4h92Q","Taco Bell",FALSE,9,3,1,15237.8960540559,35.041355,-85.685103,"Kimball","TN",0.07,0.0275,0,0,0.0975
"20","37347","W59Fr2u37tn6-VokzDi0JQ","Pizza Hut",FALSE,10,2.5,1,15181.4344073228,35.0403876497465,-85.6857888400555,"Kimball","TN",0.07,0.0275,0,0,0.0975
"21","37380","kvqpgnwkKkpusLjZemXXdA","Krystal",FALSE,7,2.5,1,15525.0133247316,35.0425415,-85.6882935,"South Pittsburg","TN",0.07,0.0275,0,0,0.0975
"22","37347","c4U9YRdjSgjYbZ3Kfw0DRg","McDonald's",FALSE,9,2,1,12291.6082279634,35.03631,-85.58299,"Jasper","TN",0.07,0.0275,0,0,0.0975
"23","37347","QlW-bwn5lqvZIVV3pKqkIA","Subway",FALSE,3,4,1,15104.7116226963,35.0404626,-85.6840921398812,"Kimball","TN",0.07,0.0275,0,0,0.0975
"24","37347","tFZ8mhr-MEd76ybrFEoDyQ","Little Caesar's",FALSE,3,3.5,1,15159.9302988514,35.041423182483,-85.6833735022582,"Kimball","TN",0.07,0.0275,0,0,0.0975
"25","37347","6OIx2bew7j5ogdV98VSmrg","Long John Silver's",FALSE,7,2.5,1,15143.9424459041,35.03999,-85.68583,"Kimball","TN",0.07,0.0275,0,0,0.0975
"26","37347","AM0QOXmg89jcQnQB9jZJoA","McDonald's",FALSE,14,1.5,1,15427.7566401919,35.0428988,-85.686025545001,"Kimball","TN",0.07,0.0275,0,0,0.0975
"27","37347","gckK9_9MRZnh6gnN2A75MQ","Wendy's",FALSE,4,2.5,1,15453.2498338268,35.042592,-85.6871251,"Kimball","TN",0.07,0.0275,0,0,0.0975
"28","30738","hz3dpf97Z9pmiJuKOslgTw","Cornerstone Restaurant",FALSE,3,2,1,12357.0516577572,34.7658043,-85.5327301,"Rising Fawn","GA",0.04,0.03,0,0,0.07
"29","30096","5mwnNd0h3DgqoeniZyWF8w","UrbanTaali FoodTruck",FALSE,31,3.5,1,128106.419366812,33.99764,-84.16493,"Atlanta","GA",0.04,0.02,0,0,0.06
"30","30240","aChdJgCd6V1vEkWHclXS7g","Biscuit Stop",FALSE,8,5,1,23157.4707738314,33.0343228665985,-85.1098727010603,"Lagrange","GA",0.04,0.03,0,0,0.07
"31","30240","JzHj5HneHmK2jkl5LSOMAA","Charlie Joseph's",FALSE,33,4,1,13539.6215135506,33.022805762977,-85.0796270370483,"Lagrange","GA",0.04,0.03,0,0,0.07
"32","30240","AN8EuLVajUJf2Sf-6n7BcA","Hog Heaven",FALSE,27,3.5,2,13525.922360624,33.0230713,-85.0796738,"Lagrange","GA",0.04,0.03,0,0,0.07
"33","31833","6KHpR408-5q4zIGTIyiydA","Korean Bbq House",FALSE,12,4.5,2,19632.6607838406,32.87779,-85.17646,"West Point","GA",0.04,0.03,0,0,0.07
"34","30240","Gmjmi6Y4-XuEXZ0Pa9Mfjw","Fox's Pizza Den",FALSE,5,3.5,1,13632.8328555997,33.024029160502,-85.0782752037048,"LaGrange","GA",0.04,0.03,0,0,0.07
"35","30240","e1nggQiwBFZf6P3DkTt3Vg","Red Rooster Buffet",FALSE,2,4,1,13525.922360624,33.0230713,-85.0796738,"Lagrange","GA",0.04,0.03,0,0,0.07
"36","30240","zRDgVHS2sjwkUCNbDxUKOg","Kountry Kitchen",FALSE,1,4,1,13696.5282318456,33.0242720388715,-85.0775134563446,"Lagrange","GA",0.04,0.03,0,0,0.07
"37","31833","lEcO1xkNAs6RZ2SexIvrEA","Johnny's New York Style Pizza",FALSE,34,4.5,2,3270.10780000948,32.8764516105107,-85.1839244515552,"West Point","GA",0.04,0.03,0,0,0.07
"38","31833","LRNmm0ZllQ1fosayvGe2eg","Pokey's 8th Street Grill",FALSE,15,4.5,1,3240.26801512935,32.8768590423215,-85.1834781303983,"West Point","GA",0.04,0.03,0,0,0.07
"39","31833","d_nS-KGqsMPzu1eZZHqCuQ","Coach's Bar & Grill",FALSE,23,4,2,3221.14129712406,32.87690602907,-85.1839562505484,"West Point","GA",0.04,0.03,0,0,0.07
"40","31833","kyYQwof6OMSb72_ZWjqRRA","Railroads",FALSE,10,4.5,1,3226.21687333234,32.876742,-85.184388,"West Point","GA",0.04,0.03,0,0,0.07
"41","31833","M8-tfV2NdJmsVFB8b14olw","Miso Sushi House",FALSE,7,4.5,2,3243.26970383569,32.876551,-85.184505,"West Point","GA",0.04,0.03,0,0,0.07
"42","31833","TT4C0_O6vaBbQ4zzOb6ajQ","Newt's Fried Chicken",FALSE,11,3,1,5151.97301298854,32.8766822814941,-85.1502914428711,"West Point","GA",0.04,0.03,0,0,0.07
"43","31833","g74isAiLfDAaNyHIQgsLKw","Rogers Pit-Cooked Bar-B-Que",FALSE,9,2,1,3442.4345632644,32.87715,-85.17738,"West Point","GA",0.04,0.03,0,0,0.07
"44","31833","-52vSUgsVr3GfZ3PPHuBig","Chick Delite",FALSE,5,3,1,3512.62362239641,32.87603,-85.17829,"West Point","GA",0.04,0.03,0,0,0.07
"45","31833","KZTyGUIe95IVNTjxfKusqA","Summit Grill",FALSE,2,1.5,1,5312.78189907401,32.8762169,-85.1476288,"West Point","GA",0.04,0.03,0,0,0.07
"46","49015","ungPmNQRVaYzB7a776JsNA","Pizza Hut",FALSE,7,2,1,9438.13017413878,42.261637,-85.191251,"Battle Creek","MI",0.06,0,0,0,0.06
"47","31901","qdBj7gFPZhAtyZK27XZeIg","11th and Bay Southern Table",FALSE,358,4.5,2,5254.43427384063,32.466508,-84.995275,"Columbus","GA",0.04,0.03,0,0.01,0.08
"48","31901","vVFldydkompD7sQqQJfZFg","Plucked Up Chicken & Biscuits",FALSE,282,4.5,1,5031.52598369556,32.4690697,-84.9916082,"Columbus","GA",0.04,0.03,0,0.01,0.08
"49","31901","BFsM7cOnpzJy-P82VCo0YQ","The Black Cow",FALSE,411,4,2,5060.79967042181,32.468938,-84.9908559,"Columbus","GA",0.04,0.03,0,0.01,0.08
"50","31901","DBuwVrRbYMRfUJIFsKA5lg","Epic Restaurant",FALSE,135,4.5,3,4982.930395583,32.46863,-84.99474,"Columbus","GA",0.04,0.03,0,0.01,0.08
"51","31909","0nCSakNp6IKeo90jZhu8JQ","Zombie Pig BBQ",FALSE,192,4.5,2,4967.41042668507,32.53392,-84.95567,"Columbus","GA",0.04,0.03,0,0.01,0.08
"52","31904","J22V4NdmhiCiWDcZxJYXjQ","La Nacional Mexican Buffet",FALSE,118,4.5,1,3453.68569767768,32.5061913,-84.9668198,"Columbus","GA",0.04,0.03,0,0.01,0.08
"53","31901","-73KW-ZU8xPGrofMtDr0Dw","Mabella",FALSE,178,4.5,3,5273.97724221868,32.4667538538286,-84.9921560083531,"Columbus","GA",0.04,0.03,0,0.01,0.08
"54","31904","ExhWWL5Qec7Po6f6_FT7Aw","Buckhead",FALSE,370,4,3,4644.77722125089,32.51346,-84.95293,"Columbus","GA",0.04,0.03,0,0.01,0.08
"55","31901","0Kgc59z8_Bt-edO9V6-MoA","The Loft",FALSE,150,4.5,2,5334.04826339538,32.46611,-84.99275,"Columbus","GA",0.04,0.03,0,0.01,0.08
"56","31901","wNn5fQ3p4n2bRQa6bQd9GA","Minnie's Uptown Restaurant",FALSE,144,4.5,1,5915.1231672575,32.461,-84.991452,"Columbus","GA",0.04,0.03,0,0.01,0.08
"57","31901","4e8h60mVSeQKGrqgFmwyaw","Nonic Beer Bar & Kitchen",FALSE,160,4,2,4966.60560178131,32.4693370560591,-84.9936344577951,"Columbus","GA",0.04,0.03,0,0.01,0.08
"58","31901","Okge_00wEAUIUAT06aV4xg","7th Street Provisions",FALSE,86,4.5,2,6188.68966944233,32.4587898254395,-84.9893341064453,"Columbus","GA",0.04,0.03,0,0.01,0.08
"59","31904","_oqO-7Vps3S4P8BiYp02Rw","Just Thai",FALSE,63,4.5,1,1752.45529886137,32.514573,-84.984008,"Columbus","GA",0.04,0.03,0,0.01,0.08
"60","31906","KA6KMVw5TxWYG_hAIsoApQ","Lemongrass Thai & Sushi",FALSE,192,4,2,6340.72463561423,32.47217,-84.95575,"Columbus","GA",0.04,0.03,0,0.01,0.08
"61","31901","mpemORd60WMIuba7wvjo-Q","Midtown Coffee House",FALSE,81,4.5,2,5522.03856699406,32.4706605,-84.9726371,"Columbus","GA",0.04,0.03,0,0.01,0.08
"62","31901","ac54w1G7LqaJwg58NjA9cw","Uptown Vietnam Cuisine",FALSE,124,4,2,4869.86702980874,32.4697008155032,-84.9930515729762,"Columbus","GA",0.04,0.03,0,0.01,0.08
"63","31904","qjNr5hmTmdnLRH9cjHU5_w","Korea House",FALSE,109,4,2,3753.97031507335,32.52256,-84.96414,"Columbus","GA",0.04,0.03,0,0.01,0.08
"64","31904","GR7HyCTAo5dx7W3uGPeycg","Pho Viet",FALSE,191,3.5,1,4408.5951161595,32.516885,-84.955811,"Columbus","GA",0.04,0.03,0,0.01,0.08
"65","31901","ZXOpMxN2yWobXyzlLLl5nQ","Wicked Hen Restaurant",FALSE,123,4,2,5529.16184090549,32.470681,-84.972374,"Columbus","GA",0.04,0.03,0,0.01,0.08
"66","31904","TUi3H1tVC1m4_zFEwEVASQ","Your Pie",FALSE,83,4,1,4357.87109731515,32.522877,-84.957665,"Columbus","GA",0.04,0.03,0,0.01,0.08
"67","31909","Xs2f542pJyhZd1k9Om-D4Q","First Watch",FALSE,176,4,2,5586.73653612157,32.53911,-84.9517599,"Columbus","GA",0.04,0.03,0,0.01,0.08
"68","31901","HwpckONCcdLScXNxFD0qGA","My Boulánge",FALSE,95,4,4,5057.5007528204,32.468938,-84.991018,"Columbus","GA",0.04,0.03,0,0.01,0.08
"69","31901","HjBum82KSGq1JSRMcjO1_g","Your Pie",FALSE,88,4.5,1,5384.12685793157,32.4655684,-84.9933603,"Columbus","GA",0.04,0.03,0,0.01,0.08
"70","31901","dQhnN-WNvnXPJD43IRR5KQ","Bare Roots",FALSE,90,4,2,5079.6753584879,32.4686626412999,-84.9914088292869,"Columbus","GA",0.04,0.03,0,0.01,0.08
"71","31901","0pTi536IkX2Xa8SqKkAzNw","Cannon Brew Pub",FALSE,323,3.5,2,5296.71856892242,32.46636,-84.99372,"Columbus","GA",0.04,0.03,0,0.01,0.08
"72","31901","0jDJDAIjHLFS4cvtwZAyGA","Iron Bank Coffee Co.",FALSE,147,4,1,5296.46545686274,32.4664412733225,-84.9928494241295,"Columbus","GA",0.04,0.03,0,0.01,0.08
"73","31904","5yaop88X5l6H5xHLnNAW4w","Thai House",FALSE,91,4,2,4357.84559045685,32.52293,-84.957573,"Columbus","GA",0.04,0.03,0,0.01,0.08
"74","31904","Kykn-tjNSw1TlFo-lH2Nkg","Clearview Barbecue",FALSE,76,4,1,2243.9919494009,32.504433,-84.981175,"Columbus","GA",0.04,0.03,0,0.01,0.08
"75","31901","5PbWRoqNUVE5L5OOdKShOw","Jarfly",FALSE,126,4,2,5532.77917858771,32.47071,-84.97198,"Columbus","GA",0.04,0.03,0,0.01,0.08
"76","31901","UNwMmpxR8EVBReYsGsGAew","Fountain City Coffee",FALSE,100,4,1,5425.09407236459,32.4649167,-84.9935147,"Columbus","GA",0.04,0.03,0,0.01,0.08
"77","31909","rSTRzc6_S0WB8oFyLbIxgQ","Cerrone's Brick Oven Pizzeria",FALSE,152,4.5,2,8057.12808515564,32.56091,-84.937795,"Columbus","GA",0.04,0.03,0,0.01,0.08
"78","31909","BWsw5n4lFaFZR59nvtfsQA","Mellow Mushroom",FALSE,125,4,2,4979.03914206369,32.53238,-84.95457,"Columbus","GA",0.04,0.03,0,0.01,0.08
"79","31909","UiNvacIgCQczaaBfUQVqUQ","Zoes Kitchen",FALSE,100,4,2,5910.94589458678,32.5423612055238,-84.9498081207275,"Columbus","GA",0.04,0.03,0,0.01,0.08
"80","31904","GARgMgXOxIR_e_Q67PlkRg","Chick-fil-A",FALSE,31,4.5,1,3835.01101287883,32.5318211,-84.968097,"Columbus","GA",0.04,0.03,0,0.01,0.08
"81","31901","KW9vZ_-IFEHTxkd05RHOnw","Ruth Ann's Restaurant",FALSE,160,3.5,2,5605.84011767446,32.464521,-84.987779,"Columbus","GA",0.04,0.03,0,0.01,0.08
"82","31904","7lxgVLltIFcFHBhJyC1iWQ","Juice Bar",FALSE,40,4.5,1,4453.58163519983,32.5202280182431,-84.9558484792165,"Columbus","GA",0.04,0.03,0,0.01,0.08
"83","31901","3QbwgnKND7FFfVWuOu65qg","Smoke Bourbon and BBQ",FALSE,155,3.5,2,5276.43567135238,32.46653,-84.99372,"Columbus","GA",0.04,0.03,0,0.01,0.08
"84","31901","xgN6r38UddWzpTf4bQoReA","Chili Thai - Uptown",FALSE,151,3.5,2,5438.13188341023,32.4649481818605,-84.9943511955893,"Columbus","GA",0.04,0.03,0,0.01,0.08
"85","31903","0-1C7aRVd_4TIGMH3n_k4Q","La Mexicana",FALSE,202,4,1,10378.2251549229,32.4304809570312,-84.9518966674805,"Columbus","GA",0.04,0.03,0,0.01,0.08
"86","31906","UkY6etKuI0Rsr4kwwPgdNQ","Skippers Seafood",FALSE,114,4.5,2,8781.45365502827,32.45738,-84.93662,"Columbus","GA",0.04,0.03,0,0.01,0.08
"87","31904","J9gSPIw93ZWhU34JHemHTg","Wheelys Cafe & General Store",FALSE,28,4.5,1,4375.03739137567,32.5224769925515,-84.9572525918484,"Columbus","GA",0.04,0.03,0,0.01,0.08
"88","31909","ClhGxW--OdGJO0MFNY3GPg","Koreana",FALSE,100,4,2,7526.95740337094,32.52898,-84.92455,"Columbus","GA",0.04,0.03,0,0.01,0.08
"89","31901","a4koKlWjA4pBMslYiCAOwg","Vertigo Fusion Kitchen",FALSE,38,4.5,2,5063.61379196082,32.46893,-84.9908,"Columbus","GA",0.04,0.03,0,0.01,0.08
"90","31906","E6uU7ju9mtq2QDT13-66vA","Bodega 1205",FALSE,21,4.5,2,1031.72611150803,32.468974,-84.992068,"Columbus","GA",0.04,0.03,0,0.01,0.08
"91","31901","GzpCUYihvYiniFVPtzasWQ","Freeze Frame Yogurt",FALSE,39,4,1,1195.77595462618,32.466899,-84.992812,"Columbus","GA",0.04,0.03,0,0.01,0.08
"92","31901","-tY4zKlLO7EdARbT-QBKaQ","Scruffy Murphy's Irish Pub & Eatery",FALSE,75,3.5,2,1232.19248669345,32.466211,-84.993724,"Columbus","GA",0.04,0.03,0,0.01,0.08
"93","31906","sOJb4zVSiQHSqLPFx-PXkg","Country Life Vegetarian Restaurant & Natural Food Store",FALSE,41,4.5,1,3348.9950170005,32.4694595,-84.9637527,"Columbus","GA",0.04,0.03,0,0.01,0.08
"94","31903","awX9hdWIp9857vKdYXi5iw","Rose's Caribbean Restaurant",FALSE,100,4.5,1,4086.67076652906,32.4116439819336,-84.9440994262695,"Columbus","GA",0.04,0.03,0,0.01,0.08
"95","31906","-d7UHCR19UnwKRdeJYEXtg","Golden Chopsticks",FALSE,71,4,2,4001.34910435329,32.44564,-84.93002,"Columbus","GA",0.04,0.03,0,0.01,0.08
"96","31903","QKoqo8K5QpjxXHWh9_FESg","CC's Place",FALSE,39,4.5,1,3755.84677715838,32.41875,-84.94066,"Columbus","GA",0.04,0.03,0,0.01,0.08
"97","31907","0WdVVbUBtlTVDYOKYMUbSg","Mercy's Jamaican Kitchen",FALSE,81,5,2,12248.7237051038,32.5241310452313,-84.8888753727078,"Columbus","GA",0.04,0.03,0,0.01,0.08
"98","31901","lNCm7TJzipIupoSXBTkejg","Jordan Girls Gourmet Dawgs",FALSE,11,5,1,2839.80729076685,32.4612160412142,-84.9879638850689,"Columbus","GA",0.04,0.03,0,0.01,0.08
"99","31901","8x5Yy6-tca9GCe2UsXNujA","Chester's Barbeque",FALSE,53,3.5,1,2451.84061276372,32.4568748474121,-84.9880065917969,"Columbus","GA",0.04,0.03,0,0.01,0.08
"100","31903","Z9cChWAZ-oJ7phCYMX6dKg","Seoul Garden Restaurant",FALSE,48,3.5,2,5093.84133189249,32.4166839017441,-84.9519219479546,"Columbus","GA",0.04,0.03,0,0.01,0.08
"101","31903","OHAKbMovH0dXNCHKc531Uw","Tacos El Paisa",FALSE,21,4,1,5818.67620551916,32.4218383621976,-84.9471624568105,"Columbus","GA",0.04,0.03,0,0.01,0.08
"102","31903","Yg6bbICXLjgMdAcHdUxguA","Vallarta Mexican Restaurant",FALSE,44,3.5,2,5635.53801949796,32.416103258729,-84.9412109702826,"Columbus","GA",0.04,0.03,0,0.01,0.08
"103","31903","HtQrZMCLiTOgyv39Es15TQ","Fife and Drum",FALSE,32,3,2,8474.99584608885,32.3893815,-84.9552696,"Columbus","GA",0.04,0.03,0,0.01,0.08
"104","31903","FgFFEupvAxYsjJwRuFbbrA","Borinquen Foods",FALSE,13,4,1,11128.6741179047,32.415664,-84.952857,"Columbus","GA",0.04,0.03,0,0.01,0.08
"105","31905","VqHKHvqx9quaGw5GjIRFoA","El Zapata Mexican Restaurant",FALSE,34,2,2,3996.80150725342,32.351043,-84.974745,"Fort Benning","GA",0.04,0.03,0,0.01,0.08
"106","31903","R0I45oSTKORp3AmQWMP2vg","Shark's Fish & Chicken - Chicago Style",FALSE,19,3.5,1,11533.0317268587,32.415279828742,-84.9429228901863,"Columbus","GA",0.04,0.03,0,0.01,0.08
"107","31905","pYB7SeUy7qbeLYaF1Z0deg","Zaxby's Chicken Fingers & Buffalo Wings",FALSE,18,2.5,1,5488.3291048983,32.3607299,-84.9624599,"Fort Benning","GA",0.04,0.03,0,0.01,0.08
"108","31903","-MFTpxc4DKgLncMUvWPlBA","BTJ Wings",FALSE,12,3.5,1,11957.5163777148,32.420504,-84.944703,"Columbus","GA",0.04,0.03,0,0.01,0.08
"109","31903","SBneVZUDy7ZVITcq3Resqw","Waffle House",FALSE,10,3.5,1,11023.6751530521,32.4064808928565,-84.9368191607406,"Columbus","GA",0.04,0.03,0,0.01,0.08
"110","31903","AvLnt6Q0z9SwYpSKUE-9-A","WNB Factory Wings & Burger",FALSE,15,3,1,11472.2376373001,32.4150836852218,-84.943810030818,"Columbus","GA",0.04,0.03,0,0.01,0.08
"111","31903","eC3TTfI9KO0TZ9PhVcgHaA","Friends Wing Town",FALSE,8,4,1,12291.1529562762,32.42627,-84.9505,"Columbus","GA",0.04,0.03,0,0.01,0.08
"112","31903","XERyR_mSat1Kv_7m5Gq3Fw","Orient Express",FALSE,14,3,1,11087.4869139513,32.4098052978516,-84.9414672851562,"Columbus","GA",0.04,0.03,0,0.01,0.08
"113","31903","aLGttIEEaPomiAbOZIygWQ","Hot Wing Connections",FALSE,4,4,1,11648.8640676804,32.41989,-84.95137,"Columbus","GA",0.04,0.03,0,0.01,0.08
"114","31905","SeXkTfWYlvv4sRBF68LjiA","Dunkin'",FALSE,31,1.5,1,5615.28921647693,32.3636353,-84.963706,"Fort Benning","GA",0.04,0.03,0,0.01,0.08
"115","31903","mkXG96Wf5c7PYrdRpSKwwQ","CHINA DRAGON EXPRESS",FALSE,21,2,1,11126.8474493437,32.41597,-84.95237,"Columbus","GA",0.04,0.03,0,0.01,0.08
"116","31905","_W_3FM0e4zc4bzR8XSpdfQ","Java Cafe",FALSE,4,3,1,5374.38398072272,32.3601220915208,-84.9647510424256,"Cusseta","GA",0.04,0.03,0,0.01,0.08
"117","31905","omQ2GMH-yfCTUBJbgNV9xQ","Domino's Pizza",FALSE,9,3,1,11234.7080965827,32.397252,-84.920461,"Fort Benning","GA",0.04,0.03,0,0.01,0.08
"118","31903","99UKMwW2KeCT_z3CxV5gTA","Sonic Drive-In",FALSE,20,2,1,12219.1218709634,32.4247584,-84.948446,"Columbus","GA",0.04,0.03,0,0.01,0.08
"119","31903","QbzRnA9I6vRSncpGIZ9cyA","Papa John's Pizza",FALSE,14,2.5,1,11276.743509716,32.41156,-84.940872,"Columbus","GA",0.04,0.03,0,0.01,0.08
"120","31905","3shVUZL7AEE04r1KKJmLeg","Starbucks",FALSE,15,2,2,9504.38504218993,32.37624,-84.923349,"Ft. Benning","GA",0.04,0.03,0,0.01,0.08
"121","31903","pgKpwRjAZC8Nyf7xuvWdpQ","Taco Bell",FALSE,8,3,1,12277.1010617083,32.425366,-84.948517,"Columbus","GA",0.04,0.03,0,0.01,0.08
"122","31905","F6PKUpHRaDR8P7oE24ENRg","Subway",FALSE,5,1.5,1,4632.23089345902,32.3590428794592,-84.975310191967,"Fort Benning","GA",0.04,0.03,0,0.01,0.08
"123","31905","2vnBCORwXtvjBXSLeQthkA","Starbucks",FALSE,8,3.5,2,7862.45733080531,32.34461,-84.899682,"Ft Benning","GA",0.04,0.03,0,0.01,0.08
"124","31905","bWOmcqvxAKx-EGsNEAdqWg","Burger King",FALSE,6,2,1,5547.11463571733,32.3619923775761,-84.9632942676544,"Cusseta","GA",0.04,0.03,0,0.01,0.08
"125","31905","mL3QnOBJg2JX2Sow12MUuw","Java Cafe",FALSE,2,4.5,1,11055.8574781123,32.3710611869662,-84.8602545261383,"Cusseta","GA",0.04,0.03,0,0.01,0.08
"126","31905","lva63zuXFLFQtA8VNlwe-g","Froots",FALSE,1,3,1,6646.26042292647,32.360003,-84.934405,"Fort Benning","GA",0.04,0.03,0,0.01,0.08
"127","31905","uknErzl_oSdU0yuxtXb0UQ","Domino's Pizza",FALSE,12,2,1,9876.9204192006,32.3820532711984,-84.9011631087288,"Fort Benning","GA",0.04,0.03,0,0.01,0.08
"128","31903","YYeGASdfFmDCXxL2u1uzew","China Inn Restaurant",FALSE,15,1.5,1,11762.9593775342,32.40607,-84.93115,"Columbus","GA",0.04,0.03,0,0.01,0.08
"129","31903","yWNtA9pVjFYlXkXfnQvWmA","Pizza Roma",FALSE,12,1.5,2,12036.2241820615,32.4085843,-84.9554497,"Columbus","GA",0.04,0.03,0,0.01,0.08
"130","31905","IpTC_5aU4-Z3aYz-XdzQkw","Burger King",FALSE,2,2.5,1,8598.63168273324,32.375727,-84.923292,"Fort Benning","GA",0.04,0.03,0,0.01,0.08
"131","31905","vf5q8H95l6zquwrgZ7fuSg","Burger King",FALSE,1,4,1,9842.57684515858,32.3819457284036,-84.9017858505249,"Cusseta","GA",0.04,0.03,0,0.01,0.08
"132","31905","IN5T7SBTTNDH80kO8JY_EA","Arby's",FALSE,9,1.5,1,11057.1196842725,32.3710523234232,-84.8602250248362,"Cusseta","GA",0.04,0.03,0,0.01,0.08
"133","31905","G-9FvaQPxIiaKMFl_WSSRw","Wing Zone",FALSE,2,3,1,11738.8782900768,32.3712252942946,-84.8600957577331,"Fort Benning","GA",0.04,0.03,0,0.01,0.08
"134","31905","N2zfoM87hRAR42-r1Iuy4Q","Charleys Grilled Subs",FALSE,1,3,1,11740.7347239854,32.3712434173765,-84.8600957577331,"Cusseta","GA",0.04,0.03,0,0.01,0.08
"135","31995","SiMvN3J3ycpLAHnOihrSKg","Burger King",FALSE,3,1,1,11061.2615522986,32.3620201597825,-84.9634367190587,"Fort Benning","GA",0.04,0.03,0,0.01,0.08
"136","31905","r2gQoV1c0fxW_s9ldlMPfg","Starbucks",FALSE,3,2.5,2,11721.1500173279,32.377239,-84.93366,"Fort Benning","GA",0.04,0.03,0,0.01,0.08
"137","39854","ztgDYDj2urBUdKpt6Xizhw","Michelle's of Georgetown",FALSE,12,4,2,16201.2323755735,31.888294,-85.108791,"Georgetown","GA",0.04,0.03,0,0.01,0.08
"138","31793","cOOv8DvbG5cDyuvgDQ0-lg","Old Mexico of Tifton",FALSE,1,2,1,16612.0899258991,31.880363,-85.085195,"Tifton","GA",0.04,0.04,0,0,0.08
"139","39823","zwvxoxn8sk4e5ITUqvwDVg","Log Cabin Restaurant",FALSE,17,5,3,7465.95017843803,31.260176,-85.096082,"Blakely","GA",0.04,0.04,0,0,0.08
"140","39823","T08HZjkA1vtvwko5OPlLBQ","Dairy Queen",FALSE,1,3,1,13757.0994662964,31.3720281120679,-84.9522888,"Blakely","GA",0.04,0.04,0,0,0.08
"141","39823","4ShFjkQVe9Lkfda0Ym17XA","Pizza Hut",FALSE,3,1.5,1,14166.2211885999,31.3737387889535,-84.948446,"Blakely","GA",0.04,0.04,0,0,0.08
"142","36541","Vn-0ZP9G2hmtLKVTfd7VFQ","Ozzy's",FALSE,29,5,2,7371.77840556871,30.477884182622,-88.3410488385869,"Grand Bay","AL",0.04,0.015,0,0,0.055
"143","36541","EgOA06KLOb3UYM2uzoUSZQ","Sam's Super Burger",FALSE,36,4.5,1,6677.43473910842,30.5079981682687,-88.3347988128662,"Grand Bay","AL",0.04,0.015,0,0,0.055
"144","36541","spk3sCGibd2BogyAryAZ9A","Sam's Super Burger",FALSE,6,3.5,1,7374.1052668111,30.479744,-88.339546,"Grand Bay","AL",0.04,0.015,0,0,0.055
"145","36541","p184z1m39H-mXNXV1R0mag","Waffle House",FALSE,6,3,1,6828.51080414586,30.4993562,-88.3353022,"Grand Bay","AL",0.04,0.015,0,0,0.055
"146","36541","16vaF21HsWwIdIPn_k7YOw","Popeyes Louisiana Kitchen",FALSE,3,3.5,1,7048.61689249448,30.498624,-88.333156,"Grand Bay","AL",0.04,0.015,0,0,0.055
"147","36541","fN7MvoUBhp76jbKVi4kB-w","Mobile Travel Store",FALSE,2,4,1,6988.54673968578,30.4984694416153,-88.3338612907136,"Grand Bay","AL",0.04,0.015,0,0,0.055
"148","36541","2rGwqT118g8lkeixdQWmBg","McDonald's",FALSE,7,2,1,6823.61542191891,30.4989091035297,-88.3355055749416,"Grand Bay","AL",0.04,0.015,0,0,0.055
"149","36541","Ro1cB9EI2Wwv6Lw-owxh-w","Hardee's",FALSE,11,1.5,1,6814.21564724262,30.49509,-88.3375499,"Grand Bay","AL",0.04,0.015,0,0,0.055
"150","36541","BogICQp7s3uBaUFkbVTp4A","Subway",FALSE,1,1,1,6814.11757627574,30.4978465227561,-88.335983755208,"Grand Bay","AL",0.04,0.015,0,0,0.055
"151","36575","eY9zgAEaeuYXfVvrnD-xGA","Semmes House Of Pizza",FALSE,24,3.5,2,13796.8603741203,30.77355,-88.275925,"Semmes","AL",0.04,0.015,0,0.015,0.07
"152","36608","9WIoUBNgrsNu0nBcjf9Jnw","Whataburger",FALSE,13,3,1,20034.6345056025,30.6709875609804,-88.2781501561362,"Mobile","AL",0.04,0.01,0.05,0,0.1
"153","36575","5k8SiQ2fh_YRjwZtW6gS4A","Subway",FALSE,3,3,1,15175.7526193054,30.7414836313925,-88.2758582859138,"Semmes","AL",0.04,0.015,0,0.015,0.07
"154","36608","7hvdYsF8IYLODIugWamE6Q","Subway",FALSE,2,3,1,19987.4714127503,30.6723929240803,-88.2770178700201,"Mobile","AL",0.04,0.01,0.05,0,0.1
"155","36608","44FPdLl_xzjDGv3FWgiYWw","Little Caesars Pizza",FALSE,4,3,1,19967.7300058495,30.6721096,-88.2773438,"Mobile","AL",0.04,0.01,0.05,0,0.1
"156","36608","SqzeqYIOHUB5Ym4qWB_OdA","Boondocks Bar and Grill",FALSE,1,3,2,19750.5395438628,30.670428,-88.283543,"Mobile","AL",0.04,0.01,0.05,0,0.1
"157","36608","jtfy-puKQ6a6uRCZuD4GBA","Alabama's Bar & Lounge",FALSE,1,1,1,19954.7015798826,30.6701107,-88.2806473,"Mobile","AL",0.04,0.01,0.05,0,0.1
"158","36919","o4hekG4oCMCscaNAlKz5tw","D Docks",FALSE,3,3.5,2,15790.9682198511,31.765127,-88.328649,"Silas","AL",0.04,0.03,0,0,0.07
"159","36925","eIaji8uTdX4nDPPXcGBgHQ","Larkin's Restaurant & Deli",FALSE,29,5,1,20348.6548614867,32.4921402259736,-88.2887340003067,"York","AL",0.04,0.03,0.04,0,0.11
"160","36925","Gtrk_9vtzNwR_fWXJKcFRg","Church's Chicken",FALSE,2,3,1,19593.8353488312,32.4817453053126,-88.3160580483571,"York","AL",0.04,0.03,0.04,0,0.11
"161","36925","5bY7qognHwxpTY6XRh8hqg","York Truck Stop",FALSE,6,2,1,9038.14272598646,32.5180701129711,-88.2986175154334,"York","AL",0.04,0.03,0.04,0,0.11
"162","35552","pECB1vu5iZ90cCWZqJ7Qbw","Woodpecker's Steak & Fish",FALSE,3,4.5,2,4261.95569710182,34.0257570878457,-88.164050604292,"Detroit","AL",0.04,0.02,0,0,0.06
"163","35586","DqWKDVtwvRG3kw9JvuIOug","Happy Days Cafe",FALSE,3,4,1,15355.5181726964,33.9024200439453,-88.133056640625,"Sulligent","AL",0.04,0.02,0,0,0.06
"164","35586","-p8_TL0SJk47XSWZYyBzvw","Country Squire Steak & Fish House",FALSE,2,3,2,15546.1301362136,33.8931114140272,-88.1526023839152,"Sulligent","AL",0.04,0.02,0,0,0.06
"165","35586","GYgsrlCDUFpJd3Ndi6Vuxg","El Mezcal Mexican Restaurant",FALSE,1,4,1,17550.1061139588,33.8834714,-88.1246678,"Sulligent","AL",0.04,0.02,0,0,0.06
"166","35582","TpN72ZylxAeCMSsp3b5M2g","The Mason Jar",FALSE,44,4,1,14357.8585312403,34.4411487,-88.1439264,"Red Bay","AL",0.04,0.02,0.025,0,0.085
"167","35582","UQsNcPuO9953s1DIQCNwgw","Jack's",FALSE,8,3.5,1,14303.7576583455,34.4396416,-88.1391673,"Red Bay","AL",0.04,0.02,0.025,0,0.085
"168","35582","81TJZv3huEXDM6CCSVmPBg","City King Buffet",FALSE,8,3.5,1,14205.1258182937,34.4393845,-88.1392665,"Red Bay","AL",0.04,0.02,0.025,0,0.085
"169","35582","aevQGX_WD-JCUKGfkRWu_Q","Cardinal Drive-In",FALSE,6,3.5,1,14885.1896512653,34.4463967114578,-88.1471098702014,"Red Bay","AL",0.04,0.02,0.025,0,0.085
"170","35582","pnwkJLnQ3A_9y9a6C8jegg","Subway",FALSE,1,1,1,14412.9922838185,34.4421157889028,-88.1473000877142,"Red Bay","AL",0.04,0.02,0.025,0,0.085
"171","35616","M9M6FabA7e_DxC4_NHXk9g","Point Of View Restaurant And Oyster Bar",FALSE,2,4,2,3126.62631416627,34.7738084401709,-88.0788397693217,"Cherokee","AL",0.04,0.005,0,0.01,0.055
"172","38852","68PdxPOaCMC6fK_TpCeZWg","Santa Fe Mexican Grill",FALSE,5,4.5,1,8384.93173811069,34.8113172976964,-88.1906569578857,"Iuka","MS",0.07,0,0,0,0.07
"173","38852","F7e_bu2I8bf8YOsAfFt-7A","El Picante",FALSE,6,3.5,2,9664.15233552237,34.8090608417988,-88.2093767076731,"Iuka","MS",0.07,0,0,0,0.07
"174","38852","x4qQ6mKaHkhTUTRjAnEDsg","Subway",FALSE,1,5,1,8956.61509077916,34.8093477,-88.1992938,"Iuka","MS",0.07,0,0,0,0.07
"175","38852","HeqmBaKmw4u3SHs0bbeOFQ","Lil Smokies",FALSE,3,3.5,1,9158.36667184248,34.8103218,-88.2016373,"Iuka","MS",0.07,0,0,0,0.07
"176","35633","l4_36FBguAGlsiB4DsSABQ","The Southern Farm Table Restaurant and Bakery",FALSE,14,4.5,2,9615.42806637744,34.9204295,-87.8373714,"Florence","AL",0.04,0.015,0,0,0.055
"177","35633","H7n6-JvvqmnjGfHS9bmXpg","Oakland Cafe & Minimart",FALSE,1,3,1,18906.1744703933,34.8410110473633,-87.7981643676758,"Florence","AL",0.04,0.015,0,0,0.055
"178","35630","Tg1RHfp5_GY6FfMN_to3mw","The Factory",FALSE,15,4.5,2,16813.0967086613,34.8620256,-87.6579877,"Florence","AL",0.04,0.01,0.045,0,0.095
"179","35633","cOVZGh36K0BP887x1Psu7A","Lil Capone's",FALSE,25,4,2,17239.8982604419,34.8516944523989,-87.6906632548446,"Florence","AL",0.04,0.015,0,0,0.055
"180","35633","lquxQ8yqkXwcjrk9j0FXNg","Homeside Restaurant",FALSE,10,4,1,15959.1805948403,34.8624965,-87.6915455,"Florence","AL",0.04,0.015,0,0,0.055
"181","35633","o9FfRGdWASyF1kmIKNtoBg","Mama Jean's Restaurant",FALSE,12,4.5,1,16784.3123792127,34.855629,-87.6919327,"Florence","AL",0.04,0.015,0,0,0.055
"182","35630","R1ExSkYWuCCOjm0lUe3D0g","Blue Coast Burrito",FALSE,31,4,1,21007.6163715796,34.8310322,-87.6237358,"Florence","AL",0.04,0.01,0.045,0,0.095
"183","35630","Q01_wij55v3tC-n8tAblFg","Taco Garage",FALSE,24,4,2,19573.7646005933,34.840295,-87.639379,"Florence","AL",0.04,0.01,0.045,0,0.095
"184","35634","kXcAi79YqGWQELDJWa9uAw","The Rising Crust Pizza And Hops",FALSE,22,4,2,21599.0774781528,34.8446097301523,-87.5805351171348,"Florence","AL",0.04,0.015,0,0,0.055
"185","35630","xzeQO1Rwn6ODBuMj6jlyyg","Umi Japanese Steakhouse",FALSE,29,3.5,2,20927.9728094767,34.8304558,-87.629135,"Florence","AL",0.04,0.01,0.045,0,0.095
"186","35633","wT5o83yAZwReB4tbEaxJbA","Sledge's Bar-B-Q",FALSE,6,4.5,1,13083.1990042714,34.8922843933105,-87.6725540161133,"Florence","AL",0.04,0.015,0,0,0.055
"187","35634","R0DI63vGqqLvYsNnQ7ByjQ","Smokin' on the Boulevard",FALSE,12,5,1,21429.9312595948,34.844258800149,-87.5849483907223,"Florence","AL",0.04,0.015,0,0,0.055
"188","35630","ZHBAPcnK-VDCnHA5bJ9w5w","Texas Roadhouse",FALSE,25,4,2,20238.0739154182,34.8362443176288,-87.6318562030792,"Florence","AL",0.04,0.01,0.045,0,0.095
"189","35634","sWrlzUT3qq3yMflwNCb3hg","Newbern's Restaurant",FALSE,22,4,1,21230.9267285201,34.8366447,-87.6055855,"Florence","AL",0.04,0.015,0,0,0.055
"190","35634","lGp89qFu5yV-O18mOXqnYg","Sam's Sports Grill",FALSE,23,3.5,2,20328.1668355828,34.8364277632852,-87.6286415793461,"Florence","AL",0.04,0.015,0,0,0.055
"191","35630","o1PUMcV3-WJBzmR4wnmSQg","Taziki's Mediterranean Cafe",FALSE,15,4,1,20364.8260886714,34.8346138243582,-87.6301857211988,"Florence","AL",0.04,0.01,0.045,0,0.095
"192","35630","NB9qoEy9HmAXFm6mVDoKkQ","Rick's Barbecue - Florence",FALSE,19,3.5,1,20785.3515969789,34.832199110224,-87.628018678407,"Florence","AL",0.04,0.01,0.045,0,0.095
"193","35630","eLD-aXDwQ3DSWP_xPtryUg","Olive Garden - To Go & Delivery Available",FALSE,23,3,2,19663.4328203043,34.8400077819824,-87.6374893188477,"Florence","AL",0.04,0.01,0.045,0,0.095
"194","35630","hJjaTL-U7agu6pzGsnWquQ","LongHorn Steakhouse - Curbside To Go Available",FALSE,24,3.5,2,21070.6046560699,34.82925,-87.62853,"Florence","AL",0.04,0.01,0.045,0,0.095
"195","35630","yi3yyAS_1nUbL_foXZRnaQ","Buffalo Wild Wings",FALSE,26,3,2,21108.7991968531,34.8300356797614,-87.6250886335038,"Florence","AL",0.04,0.01,0.045,0,0.095
"196","35630","4k4pR8ZMcXnMTt9BwH_XOQ","Casa Mexicana",FALSE,19,2.5,1,19672.8512231979,34.8388519287109,-87.6410675048828,"Florence","AL",0.04,0.01,0.045,0,0.095
"197","35630","YFGi4t6PshlSRveO9JhC4g","Panera Bread",FALSE,19,3,1,20194.395474353,34.8369135785191,-87.631094455719,"Florence","AL",0.04,0.01,0.045,0,0.095
"198","35633","wcAb6tkTRoq1j8vWcCT26A","Chat n Chew",FALSE,6,3.5,2,16577.9931709199,34.857545,-87.692149,"Florence","AL",0.04,0.015,0,0,0.055
"199","35630","hjCubtI6g3fzOjsfHZYp5w","Five Guys Burgers and Fries",FALSE,9,3.5,2,21001.2453280033,34.8318447,-87.6228674,"Florence","AL",0.04,0.01,0.045,0,0.095
"200","35630","awQ2heTQxoaEXsIEiwRmIg","Las Trojas Cantina",FALSE,19,3,2,20009.4974344744,34.83714,-87.636007,"Florence","AL",0.04,0.01,0.045,0,0.095
"201","35630","zsXqmr18uRpQmIs-Ho_9Bw","Outback Steakhouse",FALSE,23,3,2,21072.4189552172,34.8295873811326,-87.6275053892637,"Florence","AL",0.04,0.01,0.045,0,0.095
"202","35630","m3RR9BWy3N5HNwBjS0sPNQ","Chili's",FALSE,22,2.5,2,19637.692592335,34.8405802182412,-87.6364377121344,"Florence","AL",0.04,0.01,0.045,0,0.095
"203","35630","isT3-i9wNOpXWnsBDAPASw","Godfather's Pizza",FALSE,5,4,1,19672.8512231979,34.8388519287109,-87.6410675048828,"Florence","AL",0.04,0.01,0.045,0,0.095
"204","35630","KzBPgNflExoYP80jE6lbSQ","Lennys Subs",FALSE,2,5,1,19503.1219787285,34.8418414592743,-87.6396325975657,"Florence","AL",0.04,0.01,0.045,0,0.095
"205","35633","qvETkhSEU4D-mpDu0UoVWg","Fiesta Mexicana",FALSE,5,3,1,17245.339660529,34.851688,-87.6902284,"Florence","AL",0.04,0.015,0,0,0.055
"206","35630","l5XOvMvf05Q1mnRvjP1WQA","Arby's",FALSE,4,3.5,1,19677.6970453637,34.8402900695801,-87.6358871459961,"Florence","AL",0.04,0.01,0.045,0,0.095
"207","35633","8N1ZUDqCu04cvCAD2oW7Ow","Domino's Pizza",FALSE,2,3.5,1,15233.2056613295,34.8698044,-87.6916351,"Florence","AL",0.04,0.015,0,0,0.055
"208","35630","PHCgj3Yu7Y94jxrX2qCdwg","Zaxby's Chicken Fingers & Buffalo Wings",FALSE,8,2.5,2,19727.7677590184,34.840146,-87.635059,"Florence","AL",0.04,0.01,0.045,0,0.095
"209","35630","k-fNgsjeqUus4wsP6dYK6g","Sonic Drive-In",FALSE,4,3.5,1,20990.5745177972,34.8313,-87.62459,"Florence","AL",0.04,0.01,0.045,0,0.095
"210","35630","x6hk-nXYNEWodB9TaLE5_Q","McDonald's",FALSE,5,1.5,1,17562.7772188199,34.8487652011902,-87.6907203730163,"Florence","AL",0.04,0.01,0.045,0,0.095
"211","35652","mWxbRo6Yo33vxarvHPnuXA","Waltons Restaurant",FALSE,13,4,1,22051.3325833375,34.8278632,-87.3917488,"Rogersville","AL",0.04,0.015,0,0,0.055
"212","35652","44MoMShs2dHRlw5cFTinaw","Sofia's Cantina",FALSE,8,4,2,19683.3917061668,34.8246722588726,-87.293775798876,"Rogersville","AL",0.04,0.015,0,0,0.055
"213","35620","D86A_uDj2JsMEanaFtyElQ","Gin House Barbeque",FALSE,15,4,2,8663.26446069745,34.928872,-86.987505,"Elkmont","AL",0.04,0.02,0,0,0.06
"214","35739","339rInCZ0Fq2yxuELHfG_g","Whitt's Barbecue",FALSE,10,4,1,7631.0961961313,34.991231,-86.850807,"Ardmore","AL",0.04,0.02,0,0,0.06
"215","35739","lcaGIvfebL-APS_V9mZsfg","McDonald's",FALSE,9,2,1,8561.96848695311,34.9915536268563,-86.8405716028474,"Ardmore","AL",0.04,0.02,0,0,0.06
"216","35739","i5c8HyrnghC3bbqhqGQwtg","Mildred's Restaurant",FALSE,71,4,1,5882.73775740652,34.9917392,-86.8216449,"Ardmore","AL",0.04,0.02,0,0,0.06
"217","35773","4ByoYwr6Ijyp0BkpPSvi4w","El Paso",FALSE,13,4,1,9896.4479444554,34.903646,-86.753049,"Toney","AL",0.04,0.005,0,0.01,0.055
"218","35773","xv2Kzv4_P-djV2Z-9_hZsA","Cassie's Cafe",FALSE,5,4,1,7278.3572407344,34.9326467791577,-86.7251411452889,"Toney","AL",0.04,0.005,0,0.01,0.055
"219","35773","eyHx9hI0lKzql66eiCUacg","Domino's",FALSE,7,3,1,11023.7143116999,34.8939351371883,-86.7451973631978,"Toney","AL",0.04,0.005,0,0.01,0.055
"220","35773","4YVwedN7cmnZIQlQlZcJrA","Bottlenecks Sports Bar",FALSE,2,4.5,1,13663.7747898178,34.8960418671558,-86.664501093328,"Toney","AL",0.04,0.005,0,0.01,0.055
"221","35750","ybthFlwMHW3Hwhlt1lGftA","Sakura Cafe",FALSE,20,4.5,1,11947.6496205567,34.887162,-86.570001,"Hazel Green","AL",0.04,0.005,0,0.01,0.055
"222","35750","EzIWcguMt0UnJNLK616Cug","El Mariachi",FALSE,11,4,1,6448.88078621983,34.93986,-86.570895,"Hazel Green","AL",0.04,0.005,0,0.01,0.055
"223","35750","3-a5X4Td4dPYPtCsgLRyOA","Cassie's Cafe",FALSE,14,4.5,1,9213.84612917434,34.913434,-86.572583,"Hazel Green","AL",0.04,0.005,0,0.01,0.055
"224","35750","lku5PsjJ4sEHT_hUUv3WCA","Posey's Restaurant",FALSE,30,4,1,11705.8297148784,34.8897323608398,-86.5703887939453,"Hazel Green","AL",0.04,0.005,0,0.01,0.055
"225","35750","8i9yoqdAhX11BF19K8huBQ","Las Trojas Cantina",FALSE,17,3.5,2,5809.62908952499,34.9481256091935,-86.5742249786854,"Hazel Green","AL",0.04,0.005,0,0.01,0.055
"226","35750","eCONqGIO95ulHJQxPOBvFg","Golden Years Ice Cream Parlor and Diner",FALSE,9,5,1,11950.9964403295,34.8871281,-86.5699866,"Hazel Green","AL",0.04,0.005,0,0.01,0.055
"227","35750","LObLM8ry8qelbDX4iEHLXg","Ole Dad's B B Q",FALSE,14,4,1,7412.97108585006,34.9307656120713,-86.572228,"Hazel Green","AL",0.04,0.005,0,0.01,0.055
"228","35750","Vgds1Y4mEJcUeqEER2l5EA","China Cafe",FALSE,8,3.5,1,6382.24950353198,34.940489,-86.570789,"Hazel Green","AL",0.04,0.005,0,0.01,0.055
"229","35759","aEKozJ-rgTwKEbeIewp77w","China One",FALSE,7,4.5,1,13648.4424165726,34.871387,-86.569528,"Meridianville","AL",0.04,0.005,0,0.01,0.055
"230","35750","N2WrSa9f0zLgk9YqQRilgQ","Taco Bell",FALSE,6,2,1,5811.22368503274,34.9466172945649,-86.5713525081574,"Hazel Green","AL",0.04,0.005,0,0.01,0.055
"231","35750","awrRwZ41lsBtY6ZCLRg_Ug","Knight Moves Sports Bar",FALSE,2,4,1,5966.77518940329,34.944653,-86.570615,"Hazel Green","AL",0.04,0.005,0,0.01,0.055
"232","35750","EKxZKM9mq1f2Dr6iNNDmMQ","Arby's-Hazel Green",FALSE,3,2.5,1,5955.61219311128,34.9423217773438,-86.5716323852539,"Hazel Green","AL",0.04,0.005,0,0.01,0.055
"233","35750","RWwb11MvJOC1derPY11rnA","Papa John's Pizza",FALSE,4,3,1,11999.6768021785,34.887063402952,-86.5718506,"Hazel Green","AL",0.04,0.005,0,0.01,0.055
"234","35759","nKZly6KGw5kL0CKfi7sSXA","Domino's Pizza",FALSE,6,3,1,13543.9901598924,34.8715230702145,-86.5643417407226,"Meridianville","AL",0.04,0.005,0,0.01,0.055
"235","35750","ShpilwHsQeWCP3Ae4x0JRg","Burger King",FALSE,7,1,1,5926.18137595942,34.9458354654936,-86.5722145609619,"Hazel Green","AL",0.04,0.005,0,0.01,0.055
"236","35759","QvQsdswkRbXThey7skWvfw","Taco Bell",FALSE,5,2,1,13609.5937565445,34.872017,-86.571064,"Meridianville","AL",0.04,0.005,0,0.01,0.055
"237","35750","XJCrO4AIt0Z4eRciB4L1qQ","Subway",FALSE,2,3,1,6375.70024560434,34.94055816174,-86.5707958,"Hazel Green","AL",0.04,0.005,0,0.01,0.055
"238","35772","VZqf_ByxMsSNAWnSKjkJGg","Rodeo Santa Fe Mexican Restaurant",FALSE,5,4.5,2,15227.0824616896,34.8689351813394,-85.8164906408209,"Stevenson","AL",0.04,0.02,0,0.015,0.075
"239","35772","dQowd6S8pxl36FG9IVcXkw","Jack's Hamburgers",FALSE,8,2,1,14732.6279266161,34.872053,-85.8122225,"Stevenson","AL",0.04,0.02,0,0.015,0.075
"240","35772","qDajtD_MOAN7TlFaZHKQhQ","McDonald's",FALSE,3,3,1,14570.8993503285,34.8735693127479,-85.8118861913681,"Stevenson","AL",0.04,0.02,0,0.015,0.075
"241","35772","HTtYam0ZtNp--AqJm-Qf5w","Burger King",FALSE,8,1.5,1,14532.670169614,34.874003,-85.811966,"Stevenson","AL",0.04,0.02,0,0.015,0.075
"242","35772","KXzq3SCYnOwPG2erNzhLFw","Subway",FALSE,2,1,1,14973.668159508,34.8706032,-85.814457,"Stevenson","AL",0.04,0.02,0,0.015,0.075
"243","72715","rE_i_1GnX53EHyCKeTzuhw","El Pueblito",FALSE,48,4,2,5057.37882338108,36.4645822701617,-94.3004693507316,"Bella Vista","AR",0.065,0.01,0.01,0,0.085
"244","72715","qlFQmgkeC9f5XsDpSNBqEg","Lakepoint",FALSE,51,3.5,2,3883.41959523719,36.468992,-94.3156782,"Bella Vista","AR",0.065,0.01,0.01,0,0.085
"245","72714","GWFvW5-hu3vzxiKq8qo80A","The Main Bite",FALSE,33,4.5,1,12301.5939745897,36.428627033784,-94.2310254958117,"Bella Vista","AR",0.065,0.01,0.01,0,0.085
"246","72715","7_edPLuazSlGoBQuBkys1w","Duffer's Cafe",FALSE,28,4,2,6375.07691626521,36.4559384279647,-94.2903543970978,"Bella Vista","AR",0.065,0.01,0.01,0,0.085
"247","72714","zab8IS4N2PpPRhZVU96zUQ","JJ's Grill",FALSE,52,4,2,10558.7535693741,36.444849,-94.240063,"Bella Vista","AR",0.065,0.01,0.01,0,0.085
"248","72714","yR0EY7Q655JZbcTnVzZpkQ","Gusano's",FALSE,65,3.5,2,10463.7302877834,36.445499,-94.240793,"Bella Vista","AR",0.065,0.01,0.01,0,0.085
"249","72739","EDyKdeAdYDixEyofUo_Hsw","Hiwasse Store",FALSE,14,4.5,1,7661.93439159832,36.431241,-94.325433,"Hiwasse","AR",0.065,0.01,0.02,0,0.095
"250","72715","Jk8khrPhVz6MbLQMLs6Y9w","BV Bar and Grill",FALSE,12,3.5,2,7552.48081586832,36.4785405084133,-94.2563681564346,"Bella Vista","AR",0.065,0.01,0.01,0,0.085
"251","72714","DJUsnNfn_ueukcXEYVk-qA","Dairy Queen Grill & Chill",FALSE,17,2.5,1,10564.4696079981,36.4453869346479,-94.2395156621933,"Bella Vista","AR",0.065,0.01,0.01,0,0.085
"252","72714","TYwr54ZVjTwu7Mj9tSfnog","Subway",FALSE,2,2,1,10620.7392679493,36.4444455607005,-94.239569,"Bella Vista","AR",0.065,0.01,0.01,0,0.085
"253","72732","DQLUn040BzZ_iMNRebfgqA","The Shortstop Grill",FALSE,24,3.5,1,6104.6745720311,36.448043,-93.970373,"Garfield","AR",0.065,0.01,0,0,0.075
"254","72756","Jk_O0fP2IznAtv_8y-XR_Q","Takashimura Hibachi - Rogers",FALSE,15,4,2,24397.7476528449,36.33376,-94.12347,"Rogers","AR",0.065,0.01,0.02,0,0.095
"255","72632","kbstgsqZxEJVu3sWeL1lWA","Local Flavor Cafe",FALSE,593,4.5,2,11351.1959598503,36.400503,-93.739923,"Eureka Springs","AR",0.065,0.005,0,0,0.07
"256","72632","QPfEtQCxPTVeLuZKPQnY-w","Oscar's Cafe",FALSE,173,5,1,10975.8099419862,36.404567,-93.7417207,"Eureka Springs","AR",0.065,0.005,0,0,0.07
"257","72632","k9czIyn9khixFUFTmXObkg","Nibbles Eatery",FALSE,152,4.5,2,10953.7919750291,36.4036407867865,-93.7374195365524,"Eureka Springs","AR",0.065,0.005,0,0,0.07
"258","72632","0z39k7YuErNHTI2yj_TWvQ","Rockin' Pig Saloon",FALSE,296,4.5,2,12382.7237863906,36.3894614651978,-93.7334724310132,"Eureka Springs","AR",0.065,0.005,0,0,0.07
"259","72632","P_AXYMGxk-Jv4ad1tbDPwg","Mud Street Cafe",FALSE,316,4,2,11215.4531426342,36.401,-93.73832,"Eureka Springs","AR",0.065,0.005,0,0,0.07
"260","72632","pK1iMUKa_foTQlttl_GDJg","Grotto Wood Fired Grill and Wine Cave",FALSE,206,4.5,3,11055.1557357748,36.4025464542818,-93.7368396752702,"Eureka Springs","AR",0.065,0.005,0,0,0.07
"261","72632","0qox4tufW9v3tOZA1Lrz9Q","Café Amoré",FALSE,169,4.5,2,12020.8035403609,36.3922443,-93.7304636,"Eureka Springs","AR",0.065,0.005,0,0,0.07
"262","72632","QyBusU_1IgB1qcHY6OD3wQ","Ermilio's Italian Home Cooking",FALSE,242,4,2,10894.7340195087,36.405518,-93.741911,"Eureka Springs","AR",0.065,0.005,0,0,0.07
"263","72632","Q-OotEiCvTADyqzuMUXOXg","Le Stick Nouveau",FALSE,109,4.5,3,10957.5691674567,36.4035050535242,-93.7370124163395,"Eureka Springs","AR",0.065,0.005,0,0,0.07
"264","72632","3vFQf8IHQVTfY-TBDtEYIA","Aquarius Taqueria",FALSE,162,4,2,11464.4279439935,36.3996842804198,-93.7408018112183,"Eureka Springs","AR",0.065,0.005,0,0,0.07
"265","72632","XKJhYTwVCHk9aP6Lpo1u_A","Brews",FALSE,51,4.5,2,10912.2459614222,36.404346,-93.738718,"Eureka Springs","AR",0.065,0.005,0,0,0.07
"266","72632","7AqElJWaVPoNiRFlAXSqoQ","Stone House",FALSE,47,4.5,3,11446.3216498208,36.399848,-93.740717,"Eureka Springs","AR",0.065,0.005,0,0,0.07
"267","72631","tlyvInpFCVFvBEWcHzzwvw","Gaskins Cabin Steakhouse",FALSE,86,3.5,3,6944.73556663226,36.4452063292265,-93.7432848662138,"Eureka Springs","AR",0.065,0.005,0,0,0.07
"268","72632","o2F7HHe3h0g6bsaEGpc3Mg","Thai House Restaurant",FALSE,81,4.5,2,12253.7007191985,36.3904593043296,-93.7324478142362,"Eureka Springs","AR",0.065,0.005,0,0,0.07
"269","72632","fyPfsqqkS_mIwhbrFhFMlA","Eureka Daily Roast",FALSE,55,4.5,1,11056.7188564457,36.403125,-93.7370502,"Eureka Springs","AR",0.065,0.005,0,0,0.07
"270","72632","S--u_eENNV_0gzLbb8-DNw","Ozark Fried Chicken & Fish",FALSE,48,4.5,1,12217.8797024263,36.39193,-93.73762,"Eureka Springs","AR",0.065,0.005,0,0,0.07
"271","72632","nVmpOPYhJQJFGdrd1R1axQ","Sweet and Savory",FALSE,63,4.5,2,12139.1097663321,36.3913078071991,-93.7313171357618,"Eureka Springs","AR",0.065,0.005,0,0,0.07
"272","72632","2SpGNWgqTPK5oEIU5iu8dA","Mud Street Annex",FALSE,49,4.5,2,11221.9768181784,36.4012743270067,-93.738052549466,"Eureka Springs","AR",0.065,0.005,0,0,0.07
"273","72632","ZUATyzX62odaCGPs_b53gQ","Amigos",FALSE,79,4,2,11376.3577358132,36.3987390697002,-93.7412483990192,"Eureka Springs","AR",0.065,0.005,0,0,0.07
"274","72632","sNVv6OtGiP82u7_iCHNZZA","Bubba's Barbecue",FALSE,101,4,2,11858.1538395166,36.3972727978336,-93.7456689920926,"Eureka Springs","AR",0.065,0.005,0,0,0.07
"275","72632","N45Oc17C_ybtONMe3zQO3w","Angler's Restaurant",FALSE,51,4,2,10273.9111605733,36.4297,-93.78047,"Eureka Springs","AR",0.065,0.005,0,0,0.07
"276","72632","ZzFBtPQZKkILc6lYRLLjQg","Sparky's Roadhouse Cafe",FALSE,76,4,2,12240.4147001779,36.39152,-93.73738,"Eureka Springs","AR",0.065,0.005,0,0,0.07
"277","72632","Qzdhx71YiRFjovfCH0S1Kw","Grand Taverne Restaurant & Lounge",FALSE,48,4,3,11059.3466012909,36.40239,-93.736025,"Eureka Springs","AR",0.065,0.005,0,0,0.07
"278","72632","wzKq0ngEBhwRW6BV8ZhexA","Bombadil's Cafe",FALSE,31,4.5,2,11199.1702027026,36.410128,-93.763033,"Eureka Springs","AR",0.065,0.005,0,0,0.07
"279","72632","EOSZPh7ihjfJh6wH7i5QXQ","Rogue's Manor",FALSE,66,4,2,10854.8086377763,36.4049776,-93.7372711,"Eureka Springs","AR",0.065,0.005,0,0,0.07
"280","72632","YlCVGhTLDrda0nqsjrp6JQ","Balcony Restaurant & Bar",FALSE,131,3.5,2,11091.3347086877,36.4022942,-93.7372014,"Eureka Springs","AR",0.065,0.005,0,0,0.07
"281","72632","Ouk7sxwhsnkvFnVgWbNjaw","Oasis",FALSE,69,3.5,1,10969.9602610582,36.403379,-93.736775,"Eureka Springs","AR",0.065,0.005,0,0,0.07
"282","72632","Po6Df4eNTzpsgCljfi28lg","Myrtie Mae's",FALSE,76,3.5,2,11757.4681950671,36.398816,-93.747641,"Eureka Springs","AR",0.065,0.005,0,0,0.07
"283","72632","6VqVEfjkh3DB459MRELoaw","Chelsea's Corner Cafe",FALSE,77,3.5,2,10915.9237107898,36.40387,-93.73701,"Eureka Springs","AR",0.065,0.005,0,0,0.07
"284","72632","LDAWedOjUg5M5vKovma1Xg","The Filling Station",FALSE,54,4,1,12291.7321298948,36.3901671383499,-93.7327619141596,"Eureka Springs","AR",0.065,0.005,0,0,0.07
"285","72632","jinnxzb_iCpSwjDylPi4sw","Pied Piper Pub & Inn",FALSE,48,4,2,11482.7983579961,36.399427,-93.740478,"Eureka Springs","AR",0.065,0.005,0,0,0.07
"286","72632","SprSRBcqrRwQkePxLmpfVQ","The Berean Coffee House",FALSE,10,5,1,11349.301484759,36.3960771,-93.7119787,"Eureka Springs","AR",0.065,0.005,0,0,0.07
"287","72632","qzl6DlbQKtvEd_jrRn0hXg","Skybar Gourmet Pizza",FALSE,95,3,2,10448.1778291722,36.408275,-93.737406,"Eureka Springs","AR",0.065,0.005,0,0,0.07
"288","72632","jL1RDmnm1_NRypda2cYo1g","Bavarian Inn Restaurant",FALSE,51,3.5,2,11502.2452441212,36.4022449831856,-93.7506640233619,"Eureka Springs","AR",0.065,0.005,0,0,0.07
"289","72632","SamFQTKDYixrOanyu8pDYA","Big Dipper",FALSE,38,3.5,1,12336.008504708,36.3894947,-93.7332066,"Eureka Springs","AR",0.065,0.005,0,0,0.07
"290","72632","yEsRDwfmGGi5krQqpgFjZw","New Delhi Cafe",FALSE,103,2.5,2,11132.0678125979,36.4014688879251,-93.7377373874187,"Eureka Springs","AR",0.065,0.005,0,0,0.07
"291","72632","94I4TiUpr7lt__0saLQnLQ","Ice Cream Delights",FALSE,8,5,1,10141.1728111238,36.410268387039,-93.7332711741328,"Eureka Springs","AR",0.065,0.005,0,0,0.07
"292","72632","M_ot1sA4QhMQ3GwP2CYi1Q","Rowdy Beaver",FALSE,72,3,2,11190.4552136763,36.4048996,-93.754473,"Eureka Springs","AR",0.065,0.005,0,0,0.07
"293","72616","acPW2Zz-hhY0gbx1uNEpvA","Taco Bell",FALSE,1,5,1,14341.5665111091,36.376784,-93.583723,"Berryville","AR",0.065,0.005,0,0,0.07
"294","72616","fE53b7izk14hcqyLDOYEaA","KFC",FALSE,2,3,1,14377.5593431583,36.3764869726298,-93.5838839869945,"Berryville","AR",0.065,0.005,0,0,0.07
"295","72616","O5btpq9OwGwQoKT7ep93wA","McDonald's",FALSE,8,1.5,1,14282.9068757324,36.378516,-93.5873904,"Berryville","AR",0.065,0.005,0,0,0.07
"296","72616","V5Ugr7qDbVYUngzkOKZhMw","Pizza Hut",FALSE,4,2.5,1,14412.8486470057,36.375918910628,-93.5831279761624,"Berryville","AR",0.065,0.005,0,0,0.07
"297","72662","7E_Pm_nKI3HK8xqiUzoGcg","Charlie's Cafe",FALSE,7,4.5,2,7751.6428313906,36.452451,-93.188707,"Omaha","AR",0.065,0.0125,0,0,0.0775
"298","72554","T0A88kjSe6YgB1mZI1xCxQ","Fred's Fish House",FALSE,27,4,1,2627.36003052584,36.4957749,-91.5394851,"Mammoth Spring","AR",0.065,0.03,0,0,0.095
"299","72576","4BetfPpFR5vFlycKve8NMQ","Shorty's Rib Shack",FALSE,11,5,2,3734.61583845195,36.487983,-91.5288142,"Mammoth Spring","AR",0.065,0.03,0,0,0.095
"300","72554","7mWwk510SQfZtVj5G6MySA","Wood's Riverbend Restaurant",FALSE,26,3,2,2657.73574740281,36.493906,-91.539488,"Mammoth Spring","AR",0.065,0.03,0,0,0.095
"301","72554","0ks2nVnUBC66q8zSpU6Bvg","The Spring Dipper",FALSE,6,4,2,2567.31619158627,36.4952430791612,-91.540273,"Mammoth Spring","AR",0.065,0.03,0,0,0.095
"302","72554","gmdWhFy6VqCTClF8pUESNg","La Pastorella Bistro And B&B",FALSE,9,4,2,2481.41689883896,36.4956851019964,-91.5410814112951,"Mammoth Spring","AR",0.065,0.03,0,0,0.095
"303","72554","n7eOInuoWCvJiNjjuOArgg","Dorsey And Wandas State Line Restaraunt",FALSE,4,4,2,2911.12162397769,36.499242,-91.536281,"Mammoth Spring","AR",0.065,0.03,0,0,0.095
"304","72554","mvFi5wVl8jB4FrkfWeGvww","Carrie's Diner",FALSE,4,4,1,3741.31807532632,36.488381,-91.528657,"Mammoth Spring","AR",0.065,0.03,0,0,0.095
"305","72554","Kozcqc-OSsXqQGP0gcOyYg","Subway",FALSE,1,4,1,3363.49003687183,36.4907335,-91.5318978,"Mammoth Spring","AR",0.065,0.03,0,0,0.095
"306","72454","YPFPbEwciOwxtyoPV6dyUg","The Piggott Diner",FALSE,5,4.5,1,13131.0098963782,36.3815231323242,-90.1926651000977,"Piggott","AR",0.065,0.015,0.02,0,0.1
"307","72461","471O2I9t3D9oElcHbLCwRg","Sonic Drive-In",FALSE,3,3.5,1,11823.5363688681,36.2592659,-90.287603892466,"Rector","AR",0.065,0.015,0.02,0,0.1
"308","72461","vpoKv_MfBcUIs4UkHmdpvA","Freddy's Mexican Restaurant",FALSE,1,1,1,12288.3994922137,36.2589953094721,-90.2930970489979,"Rector","AR",0.065,0.015,0.02,0,0.1
"309","72443","D3ZEa51yXrynCP6_0QHN5w","Subway",FALSE,1,2,1,13444.3824600197,36.190267,-90.381265,"Marmaduke","AR",0.065,0.0175,0,0,0.0825
"310","72450","v-vM3hGvT8i2mlDfXyPMhQ","KFC",FALSE,7,1.5,1,13550.3031452569,36.052979,-90.455239,"Paragould","AR",0.065,0.0175,0.0075,0,0.09
"311","72442","SrrH8N1lGaN2tnIaHGh7mQ","1812 Pizza Company",FALSE,6,5,2,12561.5400297181,35.887055,-90.184256,"Manila","AR",0.065,0.025,0,0,0.09
"312","72442","LhLQsCNfBCIB50hf21LBSA","La Cascada Mexican Restaurant",FALSE,7,3.5,1,13935.7440741373,35.8755449254043,-90.1778518730193,"Manila","AR",0.065,0.025,0,0,0.09
"313","72442","S3WavQSArFwVROJTcKIyWw","Cypress Coffee House",FALSE,2,5,1,14304.2324241191,35.873395,-90.171611,"Manila","AR",0.065,0.025,0,0,0.09
"314","72442","jDfpPKK7rchyuqa9yngM9Q","Sonic Drive-In",FALSE,1,4,1,14281.2279103665,35.8725487,-90.176824,"Manila","AR",0.065,0.025,0,0,0.09
"315","72447","OEV6Qua58aw0x5PhQLZszQ","Subway",FALSE,1,4,1,16545.4498440709,35.8901141540799,-90.3399326478331,"Monette","AR",0.065,0.01,0.01,0,0.085
"316","72315","4TYU28T-R_OOFCD9qmDkRQ","Subway",FALSE,1,5,1,12338.413022667,35.9552768157667,-89.965481398466,"Gosnell","AR",0.065,0.025,0.015,0,0.105
"317","72319","KPgPnGHT38ifqu9RnDs_DA","Sonic Drive-In",FALSE,1,1,1,12203.3713492545,35.9586833,-89.9654086,"Gosnell","AR",NA,NA,NA,NA,NA
"318","72315","HAoNXwWufibgv-EsGkx9Dg","Las Brisas Mexican Restaraunt",FALSE,44,4,1,8163.86689081138,35.9289627,-89.8708725,"Blytheville","AR",0.065,0.025,0.015,0,0.105
"319","72315","LK-oO642ptWDUIE4ZoJInw","Yank's Famous Barbeque",FALSE,14,4.5,1,8254.17348953917,35.9273582,-89.9006581,"Blytheville","AR",0.065,0.025,0.015,0,0.105
"320","72315","sY2WCYc5AqVKgvs0bHvkTw","Olympia Steak and Seafood",FALSE,36,3.5,1,8012.7277341538,35.929910575986,-89.8759748338123,"Blytheville","AR",0.065,0.025,0.015,0,0.105
"321","72315","jVcIhjypYJXZ6ba1unmMwA","Perkins Restaurant & Bakery",FALSE,34,3.5,1,8102.24124763581,35.9285874,-89.8806567,"Blytheville","AR",0.065,0.025,0.015,0,0.105
"322","72315","UlIciNVMnlppoW8zl_nI0g","Kream Kastle",FALSE,10,4.5,1,8492.83847226717,35.9281806945801,-89.9186248779297,"Blytheville","AR",0.065,0.025,0.015,0,0.105
"323","72315","prRdLsFzNW0VEvv3tb_CUQ","Dixie Pig",FALSE,25,3.5,2,7720.2945466444,35.933544,-89.910331,"Blytheville","AR",0.065,0.025,0.015,0,0.105
"324","72315","3H_CbOhblXVKf_p49Cye4w","Kimberly's",FALSE,12,4.5,1,7907.61930079783,35.9302024841309,-89.8824615478516,"Blytheville","AR",0.065,0.025,0.015,0,0.105
"325","72315","kqjFm_BRAYXXxcVUlrnJUA","Bistro Eleven 21",FALSE,25,3,2,8120.47867900773,35.9282341003418,-89.8804092407227,"Blytheville","AR",0.065,0.025,0.015,0,0.105
"326","72315","XMwWutHg9QTqAyDIypESfg","Katfish Kastle",FALSE,6,5,1,8513.136712817,35.9281806945801,-89.9191131591797,"Blytheville","AR",0.065,0.025,0.015,0,0.105
"327","72315","ybkim0ui7wV6ZQRrVisSrQ","Zaxby's Chicken Fingers & Buffalo Wings",FALSE,25,3,1,8178.4514138097,35.92927475,-89.87034567,"Blytheville","AR",0.065,0.025,0.015,0,0.105
"328","72315","PIvzL81tvnPotG1UKBDTyQ","McAdoo's",FALSE,13,4,2,8196.59675093592,35.927747,-89.900027,"Blytheville","AR",0.065,0.025,0.015,0,0.105
"329","72315","NSLgrVCrTYf1wpsGcwIo6Q","Benny Bob's Barbecue",FALSE,10,3.5,1,8299.90802837584,35.926402,-89.888866,"Blytheville","AR",0.065,0.025,0.015,0,0.105
"330","72315","kl7-UYlQDQLWTlg9szCayg","Candy On Main",FALSE,3,5,1,8290.6887655898,35.9273889,-89.9033547,"Blytheville","AR",0.065,0.025,0.015,0,0.105
"331","72315","TN3VKsJ65kdY-OBxD2GE1w","Grecian Steak House",FALSE,18,2.5,2,8006.7082761196,35.929864187254,-89.8767657480633,"Blytheville","AR",0.065,0.025,0.015,0,0.105
"332","72315","wN0-MxGmBg3_4lBg7OrIlg","El Puerto Mexican Restaurant",FALSE,12,3,1,7971.70771009637,35.9308530771736,-89.9083396354398,"Blytheville","AR",0.065,0.025,0.015,0,0.105
"333","72315","WaG8ChBTrshNkDyFDNq9Vg","Taco Bell",FALSE,8,3.5,1,8322.66013668198,35.9271655030451,-89.8753762178088,"Blytheville","AR",0.065,0.025,0.015,0,0.105
"334","72315","qEQg96BmYCa_sBjGC2OMpw","Burger King",FALSE,9,2.5,1,8205.74418516323,35.929295,-89.868934,"Blytheville","AR",0.065,0.025,0.015,0,0.105
"335","72315","ONehfTxlxPMIPZBVwRmAgg","Pizza Inn",FALSE,15,2,1,8105.94580876313,35.92842,-89.88169,"Blytheville","AR",0.065,0.025,0.015,0,0.105
"336","72315","FXiByXxjoMDkEeloFC7TzQ","Great Wall Supreme Buffet",FALSE,14,2,1,7887.44341427139,35.93127,-89.87585,"Blytheville","AR",0.065,0.025,0.015,0,0.105
"337","72315","g6kyZO6RDPY0Ex9oh6bQ1A","Sonic Drive-In",FALSE,7,2.5,1,7676.95103577201,35.9339447529178,-89.9103924,"Blytheville","AR",0.065,0.025,0.015,0,0.105
"338","72315","aNP9BN0CRwI-kBYn0Dp_6w","Wendy's",FALSE,10,1.5,1,8016.20940246642,35.929214,-89.882255,"Blytheville","AR",0.065,0.025,0.015,0,0.105
"339","72315","jURBR_keQBK4ELxMKFRIeQ","McDonald's",FALSE,8,2,1,8132.27812570103,35.9282055652945,-89.8820279779761,"Blytheville","AR",0.065,0.025,0.015,0,0.105
"340","72315","xUGrETDM9BXbyI8TOrcbMg","Pizza Hut",FALSE,2,3,1,8234.60819999533,35.926981,-89.889983,"Blytheville","AR",0.065,0.025,0.015,0,0.105
"341","72315","ugZpu4cL2JN4JIyxLWTG3g","McDonald's",FALSE,11,2,1,12726.1897673358,35.8887832343172,-89.9178297,"Blytheville","AR",0.065,0.025,0.015,0,0.105
"342","72315","Sx5oN6p27eE0gt1myZkPBA","Hardee's",FALSE,3,2.5,1,8284.18657249999,35.928261,-89.870567,"Blytheville","AR",0.065,0.025,0.015,0,0.105
"343","72315","Rarx3ROtVnmMhk0-Ni_1TQ","Kowloon Chinese Restaurant",FALSE,4,3.5,2,8978.27187863474,35.9234466552734,-89.919189453125,"Blytheville","AR",0.065,0.025,0.015,0,0.105
"344","72315","c-uV5pmELjFtKEQzLCsb9w","Subway",FALSE,1,3,1,7953.51453430814,35.931042,-89.8720657904421,"Blytheville","AR",0.065,0.025,0.015,0,0.105
"345","72315","GhXoyNpo0nznNmHl76WW7g","Subway",FALSE,1,5,1,8043.12832730622,35.9296963034348,-89.8755045805826,"Blytheville","AR",0.065,0.025,0.015,0,0.105
"346","72315","d75O00Y2wEOiXwZUzDBAbQ","Domino's Pizza",FALSE,1,1,1,7947.95763905397,35.9304273873568,-89.9099133163691,"Blytheville","AR",0.065,0.025,0.015,0,0.105
"347","72315","fI86Od_hfw7IgP4sIquUTw","KFC",FALSE,2,1,1,7569.56399358876,35.9349684989085,-89.9105399623747,"Blytheville","AR",0.065,0.025,0.015,0,0.105
"348","72348","iBDujMCXWe3yGXFRUAZMZg","Highwater Landing",FALSE,2,4.5,2,5947.62919878151,34.9515670879303,-90.3387674217409,"Hughes","AR",0.065,0.0275,0,0,0.0925
"349","72342","hOO3vRvmdeSLHqv-5kQv6w","Bailee Mae's",FALSE,16,4.5,1,9149.55363564135,34.5268204734001,-90.5852660536205,"Helena","AR",0.065,0.02,0.02,0,0.105
"350","72342","21pt3qy6XPrlCPbPZ74T_g","El Rio Lindo",FALSE,14,4,1,8598.56933299908,34.5408179,-90.6245309,"Helena-West Helena","AR",0.065,0.02,0.02,0,0.105
"351","72390","Z3da1YEo-m3yp97d6b8-vg","Laceys",FALSE,7,3.5,1,8764.49491236703,34.5408474554379,-90.628468019574,"West Helena","AR",0.065,0.02,0.02,0,0.105
"352","72342","_a9W2yxqOaYMpla_9HlUiQ","Teaden Chinese Restaurant",FALSE,6,3.5,1,8674.42032510086,34.5385399460793,-90.6201971322298,"Helena","AR",0.065,0.02,0.02,0,0.105
"353","72390","lUi8zE5Ka4s2LBZe2jShYg","Corner Market",FALSE,2,4,1,9497.42690376877,34.5380684,-90.638165,"West Helena","AR",0.065,0.02,0.02,0,0.105
"354","72342","DwXb2ObCwpUb3CnYjS8Qsg","Westrock Coffee Co. in Helena",FALSE,1,4,1,9176.44839436524,34.5261574,-90.5863342,"Helena-West Helena","AR",0.065,0.02,0.02,0,0.105
"355","72390","dO_xG56Gq0BVN1EgvSNoQg","Domino's Pizza - West Helena",FALSE,2,3,1,9306.40000186553,34.554819238673,-90.6578632126935,"Helena-West Helena","AR",0.065,0.02,0.02,0,0.105
"356","72390","bf9x1LT0Emt7Bk8FsvYSdg","KFC",FALSE,3,2.5,1,9175.82475873108,34.5541258161636,-90.6552400578138,"West Helena","AR",0.065,0.02,0.02,0,0.105
"357","72390","q7SlAOjfJtDHvfCcAcB9Yg","Taco Bell",FALSE,2,2.5,1,9125.36989223625,34.5543037958565,-90.6546943882717,"West Helena","AR",0.065,0.02,0.02,0,0.105
"358","72390","hPx9B54svGiQltEO_VYmqw","McDonald's",FALSE,6,2,1,9456.77015610477,34.5539930516643,-90.6591655,"West Helena","AR",0.065,0.02,0.02,0,0.105
"359","72390","DR2DSjuWRM8kugWIKbOL_g","Pizza Hut",FALSE,2,2,1,8994.34477772378,34.5548029548779,-90.6533153061342,"West Helena","AR",0.065,0.02,0.02,0,0.105
"360","72390","H6tpNanbIJClI1phgosSRw","Subway",FALSE,1,1,1,9104.4417914837,34.55329,-90.65096,"West Helena","AR",0.065,0.02,0.02,0,0.105
"361","71653","k9btIF1XFAld4MyiRj4HKg","Rhoda's Famous Hot Tamales",FALSE,34,5,1,14748.3302477816,33.33011,-91.28816,"Lake Village","AR",0.065,0.02,0.02,0,0.105
"362","71653","H3-Bxz49Bc_SinWLCRARbw","Fox's Pizza Den",FALSE,15,4,2,16675.968792203,33.312845,-91.291753,"Lake Village","AR",0.065,0.02,0.02,0,0.105
"363","71653","46G1-nnrq6KlXQBiOdoPTg","La Terraza",FALSE,8,3,2,15934.0332173809,33.320215,-91.292699,"Lake Village","AR",0.065,0.02,0.02,0,0.105
"364","71653","CON76dz7QQ54hIf4LQJQPg","McDonald's",FALSE,10,2,1,15581.8284207452,33.3235425848641,-91.2925235833973,"Lake Village","AR",0.065,0.02,0.02,0,0.105
"365","71653","_COFkhq5ggnMBqeXfdPAXA","Subway",FALSE,2,1.5,1,15817.5473485552,33.321304,-91.292518,"Lake Village","AR",0.065,0.02,0.02,0,0.105
"366","71653","8j8XvYKnokYAgiYi9T95WQ","South Shore Cottages & Blu's Eat House Restaurant",FALSE,13,4.5,1,9633.09476648523,33.2702,-91.22017,"Lake Village","AR",0.065,0.02,0.02,0,0.105
"367","71653","f5Mm9z28ouIDvmqnnq5ZTA","The Cow Pen",FALSE,9,3.5,2,6436.45353214734,33.275759340505,-91.1689309354853,"Lake Village","AR",0.065,0.02,0.02,0,0.105
"368","71836","-ZbgD9PSzhrTm2LcAqpQoA","Wooden Spoon Restaurant",FALSE,11,3.5,1,10556.1110351426,33.72192,-94.3925299,"Foreman","AR",0.065,0.02875,0,0,0.09375
"369","72956","iXd1xMjKzTOMH8MxB_BpDw","Colton's Steakhouse & Grill",FALSE,44,4,2,11193.1710119169,35.4611451659553,-94.357643026013,"Van Buren","AR",0.065,0.0175,0.015,0,0.0975
"370","72904","cYj32DCEjlRSVS6kDHxguA","Fried Rice",FALSE,34,4,1,13522.4465640886,35.4157295227051,-94.3852462768555,"Fort Smith","AR",0.065,0.0125,0.02,0,0.0975
"371","72904","D9GBKgda63IXY7AY-Unw5Q","Al's Bar-B-Q",FALSE,17,4,1,13765.5705123302,35.3929408639669,-94.3878525495529,"Fort Smith","AR",0.065,0.0125,0.02,0,0.0975
"372","72956","iC3SJ3AB3wPbU6Y2xdzPsw","La Fiesta Mexican Restaurant",FALSE,23,3,1,10679.1547962446,35.46967,-94.356994,"Van Buren","AR",0.065,0.0175,0.015,0,0.0975
"373","72904","uniwz3aHpceD8_mboO6hsA","Bonnie's Dairy Freeze",FALSE,8,4.5,1,13337.6834642617,35.4242248535156,-94.3721313476562,"Fort Smith","AR",0.065,0.0125,0.02,0,0.0975
"374","72956","FREcPQNACnGP3hbHy6U16A","Waffle House",FALSE,9,2,1,11483.3792570165,35.45767,-94.3569799,"Van Buren","AR",0.065,0.0175,0.015,0,0.0975
"375","72956","ZDo8vZYC_-u1Zi2zrsAyLA","McDonald's",FALSE,4,2,1,11010.5813955061,35.464528194604,-94.3569950834717,"Van Buren","AR",0.065,0.0175,0.015,0,0.0975
"376","72904","MxkdAaMPda34ObPsLQGSiQ","Burger King",FALSE,1,1,1,13662.668029845,35.41202,-94.39126,"Fort Smith","AR",0.065,0.0125,0.02,0,0.0975
"377","72904","2HvtmDIkEE_VkTp06sOgrg","McDonald's",FALSE,3,2.5,1,15523.1228388208,35.4030676961819,-94.368139,"Fort Smith","AR",0.065,0.0125,0.02,0,0.0975
"378","72956","Hn0RS9VqAugqp7x2ZY-GYQ","Frank's Italian Restaurant",FALSE,83,4,2,16604.0928360661,35.46041,-94.35498,"Van Buren","AR",0.065,0.0175,0.015,0,0.0975
"379","72956","DOCjomwr9QELiMkPUmbSmw","JC's Bar-B-Q Place",FALSE,46,4.5,1,19884.2089505006,35.4369562179873,-94.3330436199903,"Van Buren","AR",0.065,0.0175,0.015,0,0.0975
"380","72956","-iGG6-LD8klYBc46KKe6eQ","Thai Curry",FALSE,17,4.5,2,16665.4311910467,35.4601342231035,-94.356939420104,"Van Buren","AR",0.065,0.0175,0.015,0,0.0975
"381","72948","mHSXkCM-Ogkrf2jRptdZng","Sunshine Cafe",FALSE,6,4.5,1,9849.25593739817,35.64816,-94.39394,"Natural Dam","AR",0.065,0.0175,0,0,0.0825
"382","72956","FWtPiO7G6WzIhVm5uzezGg","Paul's Bakery",FALSE,6,5,2,19555.7229826156,35.43629,-94.34008,"Van Buren","AR",0.065,0.0175,0.015,0,0.0975
"383","72956","FAOPzOcFFV9GfBLc2PxQVg","El Super Taco 2",FALSE,10,4.5,1,19807.1770294714,35.4398,-94.32986,"Van Buren","AR",0.065,0.0175,0.015,0,0.0975
"384","72956","Y_AcJX2M1_5uTUpLTBc2pw","La Huerta",FALSE,15,4,2,19593.2932583793,35.4368061237367,-94.3387609352721,"Van Buren","AR",0.065,0.0175,0.015,0,0.0975
"385","72956","8QQAPlHoepoK36DsF0oeYA","D's",FALSE,13,4,1,19799.8991522926,35.444901,-94.322281,"Van Buren","AR",0.065,0.0175,0.015,0,0.0975
"386","72956","9Ucb32Q70ZHeghsq94xHKA","Daily Bread",FALSE,9,4.5,1,19473.7114808691,35.4313394,-94.3512901,"Van Buren","AR",0.065,0.0175,0.015,0,0.0975
"387","72956","cRc5m2efaCtR5vDZK2ynZA","Boom-a-rang Diner",FALSE,15,3.5,2,18961.4910489669,35.43547,-94.35383,"Van Buren","AR",0.065,0.0175,0.015,0,0.0975
"388","72956","zMBL_kO1LPg61jCGtOKZKw","Las Fresas",FALSE,15,3.5,1,16645.4105823102,35.460424,-94.354072,"Van Buren","AR",0.065,0.0175,0.015,0,0.0975
"389","72956","n66E7ern1Cp-p8bxrTrvsA","Chapters On Main",FALSE,5,4.5,1,18941.035766032,35.436689,-94.3518796,"Van Buren","AR",0.065,0.0175,0.015,0,0.0975
"390","72956","k9zqJr3Jc5nTEKwrP9wQ4g","Chili's",FALSE,19,2.5,2,16015.4700263898,35.46681,-94.35569,"Van Buren","AR",0.065,0.0175,0.015,0,0.0975
"391","72956","aqWesmU0lVu5C-ZwKAy9_w","Braum's Ice Cream",FALSE,11,3,1,16644.5239657416,35.4592361450195,-94.3561630249023,"Van Buren","AR",0.065,0.0175,0.015,0,0.0975
"392","72956","m-QfBD-gDXkV9sV3mBDilA","Zaxby's Chicken Fingers & Buffalo Wings",FALSE,9,3,1,15661.9001542757,35.46994,-94.357,"Van Buren","AR",0.065,0.0175,0.015,0,0.0975
"393","72956","UWan76jKqiQCQZtl-NZzDQ","Sweet Bay Coffee",FALSE,9,3,2,16659.8898934564,35.4597549438477,-94.3550643920898,"Van Buren","AR",0.065,0.0175,0.015,0,0.0975
"394","72956","p3Iw5QQ_KHuuYKoBKha96g","Wendy's",FALSE,6,3.5,1,16602.8750001894,35.459788,-94.356173,"Van Buren","AR",0.065,0.0175,0.015,0,0.0975
"395","72956","5IZuBsBT1PpEvPjmTLsaew","Firehouse Subs",FALSE,8,3,1,16047.3257850203,35.4664039611816,-94.355712890625,"Van Buren","AR",0.065,0.0175,0.015,0,0.0975
"396","72956","C5l96BjdTxNIvtjxYq_0xA","Subway",FALSE,4,3.5,1,16656.8746404126,35.4597008622091,-94.3552110305322,"Van Buren","AR",0.065,0.0175,0.015,0,0.0975
"397","72956","3n594LtubM3BLQv0rn2seg","Sonic Drive-In",FALSE,3,3.5,1,16687.1598617398,35.4591769449994,-94.3555242,"Van Buren","AR",0.065,0.0175,0.015,0,0.0975
"398","72956","Cqclh5_e5fVrID9i1du5eQ","Starbucks",FALSE,8,4.5,2,15972.0327878818,35.467254,-94.355488,"Van Buren","AR",0.065,0.0175,0.015,0,0.0975
"399","72956","p6_72sdPScbmXk5veK8-vg","Butcher Boys Meat Market & Deli",FALSE,3,4,2,19268.2298292557,35.436308,-94.345978,"Van Buren","AR",0.065,0.0175,0.015,0,0.0975
"400","72956","pszhAQwMQvSDLF-EKx8BXQ","El Lorito Mexican Restaurant",FALSE,4,3.5,2,19195.0305562707,35.4336,-94.35262,"Van Buren","AR",0.065,0.0175,0.015,0,0.0975
"401","72956","g_nZbC4vFGb0wtCztSF76A","Taco Bell",FALSE,8,2,1,16591.1025717603,35.46022,-94.35557,"Van Buren","AR",0.065,0.0175,0.015,0,0.0975
"402","72956","xM5CluLcdKXwWx9P0s9qYg","Taco Bell",FALSE,1,5,1,19669.0763295797,35.44394,-94.32594,"Van Buren","AR",0.065,0.0175,0.015,0,0.0975
"403","72744","fI54QUhRCov3JBULV8hqsg","American Drive-In",FALSE,8,4,1,20158.8537911644,35.9482917785645,-94.4264068603516,"Lincoln","AR",0.065,0.0125,0,0,0.0775
"404","72744","wmmJPnHgf3-Mu56RuqGmlg","Burger Land",FALSE,4,3.5,1,20445.1790659319,35.9474968523927,-94.4142532016019,"Lincoln","AR",0.065,0.0125,0,0,0.0775
"405","72744","myn3duYC2dNKLoVrQf2CFw","Simple Simons Pizza",FALSE,4,3.5,1,20225.1951280441,35.94757,-94.42043,"Lincoln","AR",0.065,0.0125,0,0,0.0775
"406","72761","QE-grXzGD9tyaw_iF8ZuRg","Pour Jons",FALSE,59,4.5,1,16435.8870744249,36.183856,-94.538153,"Siloam Springs","AR",0.065,0.01,0.02,0,0.095
"407","72761","lD10ettaJDyDF2_C-DjCJQ","28 Springs",FALSE,133,4,2,16656.2921109243,36.18582,-94.541253,"Siloam Springs","AR",0.065,0.01,0.02,0,0.095
"408","72761","oSbNUwkPbv_ClddP5xwAaw","Fratelli's Wood-Fired Pizzeria",FALSE,68,4.5,1,16513.7177861989,36.184542,-94.540887,"Siloam Springs","AR",0.065,0.01,0.02,0,0.095
"409","72761","9vIREwIl9otk0tIXEH7TxA","ziggywurst",FALSE,45,4.5,1,16741.8065544871,36.18657,-94.54268,"Siloam Springs","AR",0.065,0.01,0.02,0,0.095
"410","72761","a4-nloKBhVlI0wQqJucJMg","Thai Cafe",FALSE,45,4.5,1,15734.8663432336,36.17753,-94.5414232,"Siloam Springs","AR",0.065,0.01,0.02,0,0.095
"411","72761","g703H4Xz4zycXapvc_XuVQ","Cathy's Corner",FALSE,63,4,1,15459.1355497333,36.17449,-94.522631,"Siloam Springs","AR",0.065,0.01,0.02,0,0.095
"412","72761","tszCoEYmU2ZNn1NkIBXZ7A","The Cafe On Broadway",FALSE,40,4.5,1,16658.9217174068,36.1858515386343,-94.5405394946632,"Siloam Springs","AR",0.065,0.01,0.02,0,0.095
"413","72761","2MfkDhrU-dqXo17ce2Afiw","Barnettes Dairyette",FALSE,60,4,1,15804.3758964928,36.17825,-94.5421999,"Siloam Springs","AR",0.065,0.01,0.02,0,0.095
"414","72761","rY12gQSneukM03G5HELYyg","Pure Joy Ice Cream",FALSE,24,4.5,1,16609.0640927466,36.185401047789,-94.5407477278996,"Siloam Springs","AR",0.065,0.01,0.02,0,0.095
"415","72761","m3fhHocnYOg9FJnKMe6Xig","Taqueria El Rancho",FALSE,34,4.5,1,16187.9749159363,36.1816054564001,-94.5352906652291,"Siloam Springs","AR",0.065,0.01,0.02,0,0.095
"416","72761","Q_kO_b6i5IQeLSbJMFYv9g","Creekside Taproom",FALSE,13,5,1,16470.6360194694,36.1841507397029,-94.541206122955,"Siloam Springs","AR",0.065,0.01,0.02,0,0.095
"417","72761","7RDC4sonlNjyCVDPzxanJQ","Callahan's Steak House",FALSE,56,3,2,15109.1780979645,36.17165,-94.53888,"Siloam Springs","AR",0.065,0.01,0.02,0,0.095
"418","72761","x3IuBTwfdYRcYq2C22cVjA","RibCrib",FALSE,27,3.5,2,16388.4074732646,36.18152,-94.50849,"Siloam Springs","AR",0.065,0.01,0.02,0,0.095
"419","72761","D7UG5njsPieeZmw7mmsgnA","Cotton Patch Cafe",FALSE,44,3,1,16381.221565296,36.1809866370606,-94.5083571787371,"Siloam Springs","AR",0.065,0.01,0.02,0,0.095
"420","72761","FuO6nogv_rdfcanbsLmAhg","Matador Mexican Bar And Grill",FALSE,11,4,1,16201.5849278129,36.1801671415183,-94.5118565410004,"Siloam Springs","AR",0.065,0.01,0.02,0,0.095
"421","72761","GYFJZvt4ERbs6000iWs-bg","TJ's Pizza",FALSE,20,3.5,1,16462.8819160025,36.1803414707956,-94.4973352923989,"Siloam Springs","AR",0.065,0.01,0.02,0,0.095
"422","72761","ZrDS9KNelvk1dD-LJdzx4g","Back Forty Restaurant",FALSE,13,4,2,15914.4107421785,36.1763236650321,-94.5734902594269,"Siloam Springs","AR",0.065,0.01,0.02,0,0.095
"423","72761","2x6_CMjMpQ_bKXI2YKeXIw","Las Delicias",FALSE,8,4,1,15869.5521566827,36.178387,-94.551172,"Siloam Springs","AR",0.065,0.01,0.02,0,0.095
"424","72761","TTi1efhZ8og68Y3AvqUyLw","La Huerta",FALSE,12,3.5,1,15562.5472935492,36.1753831117456,-94.5546313190143,"Siloam Springs","AR",0.065,0.01,0.02,0,0.095
"425","72761","uA7GudFrnRjq38ERYGBu5w","Braum's Ice Cream & Dairy Store",FALSE,13,3,1,15357.9479070351,36.17407,-94.54673,"Siloam Springs","AR",0.065,0.01,0.02,0,0.095
"426","72761","wb3M_BJnq75hANNSkjDv2w","Hawg City Grill",FALSE,18,3,1,15535.1779940716,36.175132,-94.554682,"Siloam Springs","AR",0.065,0.01,0.02,0,0.095
"427","72761","qFrYbrQADF4bJ8oiIRdDeQ","Angelinos Italian Restaurant",FALSE,12,3.5,2,15842.0740901379,36.177762,-94.520243,"Siloam Springs","AR",0.065,0.01,0.02,0,0.095
"428","72761","TJdqwClXvfgUDfzTLkHR2g","Pieology Pizzeria",FALSE,28,4,1,16230.4689138914,36.18062,-94.51251,"Siloam Springs","AR",0.065,0.01,0.02,0,0.095
"429","72761","kGIFSQitlo4WPLdbGP0fdw","Siloam Cafe",FALSE,5,4,1,16436.8310807884,36.1838,-94.532997,"Siloam Springs","AR",0.065,0.01,0.02,0,0.095
"430","72761","4N958Wkkp_3uVMS-iToqxg","Hunan Village",FALSE,13,2.5,2,15834.8808277525,36.176849,-94.562339,"Siloam Springs","AR",0.065,0.01,0.02,0,0.095
"431","72761","SIurRCsviujY8_qg-aGwTw","Sonic Drive-In",FALSE,13,2,2,15497.4516891378,36.1748823,-94.5534486060796,"Siloam Springs","AR",0.065,0.01,0.02,0,0.095
"432","72761","kKA_XHenbQ4CIDT9p5f0Ig","La Hacienda De Los Reyes",FALSE,9,2.5,1,16175.1844049163,36.180835723877,-94.5213928222656,"Siloam Springs","AR",0.065,0.01,0.02,0,0.095
"433","72734","BHiqHuOnsrOmlHkXqzPWOA","The Wooden Spoon",FALSE,90,4.5,2,13403.4844055284,36.25858,-94.48568,"Gentry","AR",0.065,0.01,0,0,0.075
"434","72734","maaLE9ZZRUMc0ITTbujH0g","Pioneer Pizza",FALSE,7,4.5,1,14420.837073725,36.26768,-94.48255,"Gentry","AR",0.065,0.01,0,0,0.075
"435","72734","8xcTSr58h3PKy4LVLh0V6w","Miss Mary's Restaurant",FALSE,7,4.5,1,13797.1654656448,36.2610204132774,-94.4819857199169,"Gentry","AR",0.065,0.01,0,0,0.075
"436","72761","r0SRO-4pwLAGXlykt-DqXg","Pizza Hut",FALSE,9,2,1,2809.34213382027,36.1727818,-94.538418,"Siloam Springs","AR",0.065,0.01,0.02,0,0.095
"437","72761","hl_W6X6eV78_FjMyqRuDkg","McDonald's",FALSE,7,2,1,2506.32099857528,36.175876,-94.559552,"Siloam Springs","AR",0.065,0.01,0.02,0,0.095
"438","72761","SXg4s015x9r0MI2Xk2Iaeg","Taco Bell",FALSE,7,2,1,2489.45995488036,36.175121,-94.551935,"Siloam Springs","AR",0.065,0.01,0.02,0,0.095
"439","72734","sYpSNkwq0aBUnCH0HSpJZw","Lahuerta Mexican Restaurant",FALSE,6,3.5,1,8172.05805679002,36.2577327,-94.4858537,"Gentry","AR",0.065,0.01,0,0,0.075
"440","72722","3SCNhrPA8WA9qKAXKX1HTQ","Gallery Cafe",FALSE,12,4,1,14472.9137117567,36.33613,-94.46088,"Decatur","AR",0.065,0.01,0,0,0.075
"441","72734","QjEdvc2l-mYRHvTldvIzbg","McDonald's",FALSE,6,1.5,1,18588.5357577781,36.2634143968227,-94.4825606793165,"Gentry","AR",0.065,0.01,0,0,0.075
"442","38015","xIfNMek0IThG8zrR8r4x0Q","Gilt Edge Cafe",FALSE,15,4.5,2,11271.6137923669,35.55059,-89.82486,"Burlison","TN",0.07,0.0225,0,0,0.0925
"443","38011","jwIA0EgXjiiu502pAYCIdQ","Wells Kitchen",FALSE,15,3.5,1,21872.932007488,35.48502,-89.72242,"Brighton","TN",0.07,0.0225,0,0,0.0925
"444","38019","zE7kMk4Thv-qpjBaQFtBEw","Erwin's",FALSE,7,3.5,2,12953.8793476674,35.6006,-89.7231599,"Covington","TN",0.07,0.0225,0,0,0.0925
"445","38053","q_AnUzLg-YTwEbM4dsFgQw","Kobe Japanese Cuisine",FALSE,56,4,2,19270.987520645,35.359058,-89.896164,"Millington","TN",0.07,0.0225,0,0,0.0925
"446","38053","7Tj8w-AHdO4Wy14fMzCiaw","Huey's - Millington",FALSE,60,4,2,19171.1843490757,35.36018,-89.8915,"Millington","TN",0.07,0.0225,0,0,0.0925
"447","38004","WbvX1Yw6iWZw2AZDHLotGA","Sakura Garden",FALSE,39,4,2,14553.6034069536,35.4404899,-89.79218,"Atoka","TN",0.07,0.0225,0.005,0,0.0975
"448","38053","noO9yCGfWSPdB58bV33Qug","Chick-fil-A",FALSE,36,4.5,1,19398.2970196703,35.358041,-89.89323,"Millington","TN",0.07,0.0225,0,0,0.0925
"449","38053","Oh4BbHYvakzfj2aSWShBDQ","Pig-N-Whistle",FALSE,79,3.5,1,18517.8394986047,35.3664151,-89.8865055,"Millington","TN",0.07,0.0225,0,0,0.0925
"450","38004","ZBKA6BvCHlMNhQVu-BEQQw","JT's Burgers & Wings",FALSE,47,3.5,2,14262.8468097426,35.443962097168,-89.7917251586914,"Munford","TN",0.07,0.0225,0.005,0,0.0975
"451","38053","MrG4sc00FKeiSXcy-DG1-g","Wyatt Earp's Steakhouse",FALSE,60,3.5,2,18438.8124790989,35.367188,-89.885778,"Millington","TN",0.07,0.0225,0,0,0.0925
"452","38058","ZZFRqP1t11aFrPM5_ilyyQ","Munford Donuts",FALSE,18,4,1,13779.2169062469,35.4462191,-89.7966227,"Munford","TN",0.07,0.0225,0.005,0,0.0975
"453","38053","vQ-FPy7_sz90zwMjEaETlw","Olympic Steak and Pizza",FALSE,40,3.5,2,19267.3313581176,35.35884,-89.89496,"Millington","TN",0.07,0.0225,0,0,0.0925
"454","38053","3QkWB9WbwhzW0O-_TWIxhw","Tops Bar-B-Q",FALSE,41,3,1,19331.0965478205,35.358528137207,-89.8954772949219,"Millington","TN",0.07,0.0225,0,0,0.0925
"455","38053","3vJj9Q22yRFupDaAz7-IlA","Margaritas",FALSE,36,3,1,19331.2940240517,35.3586092774881,-89.8939615250778,"Millington","TN",0.07,0.0225,0,0,0.0925
"456","38058","_E3HI1MNtouycXxGA3-c7g","Mandarin Wok",FALSE,14,3.5,1,13644.7014867494,35.4468689,-89.7979126,"Munford","TN",0.07,0.0225,0.005,0,0.0975
"457","38004","-ABMsJTBmOYxfhvPiuTI-Q","Olympic Steak & Pizza",FALSE,20,3.5,2,14586.2968450031,35.449451,-89.781215,"Atoka","TN",0.07,0.0225,0.005,0,0.0975
"458","38053","1S1BMjqWrUtNhRqO7biCvw","Buffalo Wild Wings",FALSE,33,3,2,19232.9495317524,35.3595992981015,-89.8919270932675,"Millington","TN",0.07,0.0225,0,0,0.0925
"459","38053","AFHKy6wqVmHBcvUhyNQ96Q","Chili's",FALSE,49,2.5,2,19296.4916346164,35.3593826,-89.8926262,"Millington","TN",0.07,0.0225,0,0,0.0925
"460","38053","Au7LxtBafLSsH4yAQDIitA","Starbucks",FALSE,38,2.5,2,19368.4107926721,35.358261,-89.894262,"Millington","TN",0.07,0.0225,0,0,0.0925
"461","38004","vGR5hfrbBQHbloT2dadawA","Sweet Scentsations",FALSE,3,5,1,15310.4054187141,35.41025,-89.827692,"Atoka","TN",0.07,0.0225,0.005,0,0.0975
"462","38004","8ha5go3hEaOo71dUxrZjPg","Subway",FALSE,8,3.5,1,14588.1413295708,35.449362,-89.781276,"Atoka","TN",0.07,0.0225,0.005,0,0.0975
"463","38053","_xXhWipw9O1ZeqhOpd8QhQ","McAlister's Deli",FALSE,29,3,1,19644.0138388034,35.35629,-89.89456,"Millington","TN",0.07,0.0225,0,0,0.0925
"464","38004","URExt1VpKkk5HMuji0ALwQ","Casa Mexicana",FALSE,17,2.5,1,14546.2128951642,35.446012,-89.785359,"Atoka","TN",0.07,0.0225,0.005,0,0.0975
"465","38053","064E1WUwipm7xvSd3e2DxA","IHOP",FALSE,45,2,1,19370.7258460586,35.35821,-89.89494,"Millington","TN",0.07,0.0225,0,0,0.0925
"466","38053","PKR9Re3eOtctNq5JPvWGHw","Zaxby's Chicken Fingers & Buffalo Wings",FALSE,12,3,1,19232.0741096994,35.3597265,-89.8927404,"Millington","TN",0.07,0.0225,0,0,0.0925
"467","38004","Y5S-vxORT45oPw0voSi-8w","McDonald's",FALSE,25,1.5,1,14446.3002099874,35.449507,-89.783157,"Atoka","TN",0.07,0.0225,0.005,0,0.0975
"468","38004","OFNNLnVhppCAGDuVo0XV8Q","Domino's Pizza",FALSE,9,2.5,1,14539.1357193674,35.446805,-89.784616,"Atoka","TN",0.07,0.0225,0.005,0,0.0975
"469","38053","-iiCWGmDCNyxiH9LyukXvw","Hardee's",FALSE,18,2,1,19257.4061232428,35.359297643112,-89.8934881906406,"Millington","TN",0.07,0.0225,0,0,0.0925
"470","38004","bCdRTy3VnWGzTQzNTZeztw","Dairy Queen Grill & Chill",FALSE,1,5,1,19136.2503184982,35.3604173958321,-89.8929288983346,"Millington","TN",0.07,0.0225,0.005,0,0.0975
"471","38004","85hJdEn_GhzAxeMjXNZ_0g","Pizza Hut",FALSE,5,2,1,14643.736577602,35.4486270023138,-89.7812229394913,"Atoka","TN",0.07,0.0225,0.005,0,0.0975
"472","38053","SW6jqVrVln5PqUBMbj4Eqg","Popeyes Louisiana Kitchen",FALSE,10,2,1,19515.5401592726,35.356888,-89.8953644,"Millington","TN",0.07,0.0225,0,0,0.0925
"473","38053","fzmxE8u4o2u7tPftiga3VQ","Milano's Pizza",FALSE,49,3.5,1,19752.7822448555,35.34272,-89.90777,"Millington","TN",0.07,0.0225,0,0,0.0925
"474","38053","b7lh4--O10e3gToPKdFZKg","Lennys Subs",FALSE,18,4,1,18639.936052887,35.3528633117676,-89.8984680175781,"Millington","TN",0.07,0.0225,0,0,0.0925
"475","38053","uIgJRJRUakMtH9tUIBHfaQ","El Toro Taco",FALSE,22,3.5,1,19301.6105670771,35.3468055725098,-89.9049987792969,"Millington","TN",0.07,0.0225,0,0,0.0925
"476","38053","PIF9CANCc5UBB7Us_h11oA","Mandarin Wok II",FALSE,13,2.5,1,19399.313903369,35.345871,-89.907339,"Millington","TN",0.07,0.0225,0,0,0.0925
"477","38053","ZqdUayB_l32r8ghcEr5I0A","Grand Buffet",FALSE,7,3,2,19719.2708496412,35.3430442810059,-89.9074478149414,"Millington","TN",0.07,0.0225,0,0,0.0925
"478","38053","Z_BgV1KpnAMR6Ng_vkC2XQ","Sonic Drive-In",FALSE,12,2.5,1,19208.4186389716,35.3476376,-89.9041299,"Millington","TN",0.07,0.0225,0,0,0.0925
"479","38053","5mTtZosI2LQGv6QVldQD0Q","Little Caesar's Pizza",FALSE,5,3,1,18691.3980686924,35.3524169921875,-89.8989334106445,"Millington","TN",0.07,0.0225,0,0,0.0925
"480","38053","cHKoe2v4dv11q9CSS-Xa8Q","Oriental Noodle",FALSE,83,4.5,1,19361.350766508,35.3413682,-89.9027324,"Millington","TN",0.07,0.0225,0,0,0.0925
"481","38053","XdMS_Sre0K3EcvwfYKcriw","Smoking D's Pit Stop Barb -B-Q",FALSE,68,4.5,1,19522.3263656166,35.33957,-89.91126,"Millington","TN",0.07,0.0225,0,0,0.0925
"482","38053","q70sUhKEQxE0ajXioD6Bag","Los Pilares",FALSE,34,4,1,19404.7915871304,35.340763092041,-89.9034805297852,"Millington","TN",0.07,0.0225,0,0,0.0925
"483","38053","XVBq2eMmTEvJIUcSjIvdUw","A&J's Catfish Station",FALSE,15,5,2,19507.4320517901,35.340486,-89.896225,"Millington","TN",0.07,0.0225,0,0,0.0925
"484","38053","R1W1KWCOibqXO_ICQs2gBA","Mirimichi Golf Course",FALSE,15,4.5,2,22374.5430682291,35.2964536810622,-89.9892643913677,"Millington","TN",0.07,0.0225,0,0,0.0925
"485","38127","6nnp-tKBzkLW05e9UUsqFg","Sing Lay Chinese Restaurant",FALSE,19,4,2,22368.1768610918,35.2216722431773,-89.9740831103594,"Memphis","TN",0.07,0.0225,0.005,0,0.0975
"486","38127","GvOe2AGXL4sKC3X4oiPFGw","Happy Wok",FALSE,5,4,1,20702.5805315337,35.2263112,-90.0030621,"Memphis","TN",0.07,0.0225,0.005,0,0.0975
"487","38127","3Nc0-_yFF9cSQxO3cNkTuw","McDonald's",FALSE,7,2.5,1,22448.7313076739,35.22065,-89.974,"Memphis","TN",0.07,0.0225,0.005,0,0.0975
"488","38127","VQl-rMkGIHUF3Cjn52R4kg","Szechuan Hot Wok",FALSE,2,4,2,22341.2745428119,35.2205061,-89.9771907,"Memphis","TN",0.07,0.0225,0.005,0,0.0975
"489","38127","rBRS82yaBMycPNQnClCbYA","Subway",FALSE,4,2.5,1,22189.2126868701,35.2217014453977,-89.978003866504,"Memphis","TN",0.07,0.0225,0.005,0,0.0975
"490","38127","HWF13FSuRvG5Y0CZIZLJZQ","Red Snapper Memphis",FALSE,6,2,1,22193.748129177,35.2209805,-89.9764005,"Memphis","TN",0.07,0.0225,0.005,0,0.0975
"491","38127","tjjOT_MnPstMttkAj4JFGw","Wing Basket",FALSE,2,3,1,21336.6496621071,35.2197914123535,-90.0036697387695,"Memphis","TN",0.07,0.0225,0.005,0,0.0975
"492","38053","2i1SlPkB_zrvYp_5krgooA","The Haystack",FALSE,25,4,1,14346.8818541532,35.3047332763672,-89.9482116699219,"Millington","TN",0.07,0.0225,0,0,0.0925
"493","38053","U8Yk71bbOo4CwlSh4sC6KQ","Sarah Lee's Southern Cooking",FALSE,10,3.5,1,14376.5652946109,35.30751,-89.94551,"Millington","TN",0.07,0.0225,0,0,0.0925
"494","38128","BtWuwz0TPbYg0HF4Aqwcew","Adline Hot Wings Express",FALSE,15,3.5,2,22491.9757909248,35.20057,-89.95821,"Memphis","TN",0.07,0.0225,0.005,0,0.0975
"495","38127","cDtLwX7OvLwA293Jkqq-PA","Tops Bar-B-Q",FALSE,9,3,1,19210.1546499501,35.20829,-90.03342,"Memphis","TN",0.07,0.0225,0.005,0,0.0975
"496","38127","6CDmbACQDJPcIUK3ouw9RA","Dixie Queen",FALSE,5,4,3,19431.0089387767,35.2165,-89.99476,"Memphis","TN",0.07,0.0225,0.005,0,0.0975
"497","38127","yrhYcFIGdfN7cvu3rdQU0g","McDonald's",FALSE,4,3,1,18871.6951142026,35.2115164565491,-90.032771229744,"Memphis","TN",0.07,0.0225,0.005,0,0.0975
"498","38127","GQ6KJ-Lyy0Cri8iU_i955A","Tops Barb-B-Q",FALSE,8,2.5,1,19592.8963700008,35.217541,-89.987267,"Memphis","TN",0.07,0.0225,0.005,0,0.0975
"499","38127","KDVdHHfvryra-0_6BUgTOg","Taco Bell",FALSE,3,3.5,1,18653.041384629,35.213742,-90.031691,"Memphis","TN",0.07,0.0225,0.005,0,0.0975
"500","38127","ekJ8OfGpetSMNy_tsXNB0g","Burger King",FALSE,1,4,1,19555.8365370364,35.21674,-89.99017,"Memphis","TN",0.07,0.0225,0.005,0,0.0975
"501","38127","MjR6MB2Q6mtc99y1N8OhBg","Little Caesar's Pizza",FALSE,2,3,1,19326.5289271074,35.2178943,-89.9931651,"Memphis","TN",0.07,0.0225,0.005,0,0.0975
"502","38127","Zc42s0EIPD6RYVfybcw1uw","Subway",FALSE,2,2.5,1,18785.9454085394,35.2125375988354,-90.0315670382737,"Memphis","TN",0.07,0.0225,0.005,0,0.0975
"503","38103","mGufQb1dzGkznQoOhTaSAw","Gus's World Famous Fried Chicken",FALSE,2519,4.5,1,13724.721260305,35.1381607055664,-90.0576324462891,"Memphis","TN",0.07,0.0225,0.005,0,0.0975
"504","38103","qWdd1hIqh_Q-owsngUckaQ","Flight Restaurant & Wine Bar",FALSE,1053,4.5,3,13247.9207693471,35.1441,-90.05355,"Memphis","TN",0.07,0.0225,0.005,0,0.0975
"505","38103","GgPbCwGC-wci0v_YDe7bbQ","Blues City Cafe",FALSE,1355,4,2,13659.2028677288,35.1402,-90.053379,"Memphis","TN",0.07,0.0225,0.005,0,0.0975
"506","38103","4kqhpPpyT3ZAAoy9cO8SoA","Charlie Vergos' Rendezvous",FALSE,2097,3.5,2,13391.2289022948,35.1433447203971,-90.0515894209675,"Memphis","TN",0.07,0.0225,0.005,0,0.0975
"507","38103","RHpT5Kavidd0CsAZStYgKw","Maciel's Tortas and Tacos",FALSE,317,4.5,1,13265.5260317941,35.1439699907299,-90.053431,"Memphis","TN",0.07,0.0225,0.005,0,0.0975
"508","38105","GQYIfpfWW0K5-qKdg-m6TQ","Sunrise Memphis",FALSE,426,4.5,2,13833.1123521418,35.14389,-90.038164,"Memphis","TN",0.07,0.0225,0.005,0,0.0975
"509","38103","gA5rLyH01377m_EP6dfb0A","McEwen's Memphis",FALSE,435,4.5,3,13280.3268023992,35.144173,-90.052345,"Memphis","TN",0.07,0.0225,0.005,0,0.0975
"510","38103","73kuSBIMyw-dssZgxhe5Lg","The Majestic Grille",FALSE,650,4,2,13500.7394077011,35.1414193818227,-90.0543695918766,"Memphis","TN",0.07,0.0225,0.005,0,0.0975
"511","38103","yt6pZNEBqhQFadYV1-p8Vw","B.B. King's Blues Club",FALSE,853,4,2,13703.4375534767,35.1397353,-90.0535116,"Memphis","TN",0.07,0.0225,0.005,0,0.0975
"512","38104","Zh2P-WhofKh-sO1GTZ_FTg","Mardi Gras Memphis",FALSE,316,4.5,2,14273.7144469968,35.15214,-90.01242,"Memphis","TN",0.07,0.0225,0.005,0,0.0975
"513","38103","Z6fZBwhzKnuVEdlT0aSQXA","Tamp & Tap",FALSE,433,4,1,13482.4202675237,35.141929808167,-90.0532773862679,"Memphis","TN",0.07,0.0225,0.005,0,0.0975
"514","38103","Quqz77SOKhOMzo9spOLAKg","Cozy Corner Restaurant",FALSE,232,4.5,2,12844.2303649507,35.1556661547565,-90.0343818962574,"Memphis","TN",0.07,0.0225,0.005,0,0.0975
"515","38103","8efo7nfoueJiH-iCvmXGZA","Itta Bena",FALSE,291,4.5,3,13692.3491240481,35.1398773872592,-90.0533938843252,"Memphis","TN",0.07,0.0225,0.005,0,0.0975
"516","38103","aL8NbzUsrhhly2zC5Xhwgg","Kooky Canuck",FALSE,556,4,2,13447.6663258872,35.142404,-90.05283,"Memphis","TN",0.07,0.0225,0.005,0,0.0975
"517","38103","-9peVEeIhs3Yw9znJ85L3w","South of Beale",FALSE,478,4,2,13898.3121561409,35.13679,-90.05764,"Memphis","TN",0.07,0.0225,0.005,0,0.0975
"518","38103","8Z82-6yfZ7laspyTf6tYCA","Aldo's Pizza Pies",FALSE,420,4,2,13449.3845109591,35.1423599,-90.05356,"Memphis","TN",0.07,0.0225,0.005,0,0.0975
"519","38103","OZjrUk-CJq7mVKPYTVfc0Q","Flying Fish",FALSE,444,4,2,13484.2525804435,35.1420662668398,-90.0527831912041,"Memphis","TN",0.07,0.0225,0.005,0,0.0975
"520","38105","EkYGbxjSxeFwb_Z57mxNYA","Roxie's Grocery",FALSE,90,4.5,1,12145.1038828005,35.1582107543945,-90.0446014404297,"Memphis","TN",0.07,0.0225,0.005,0,0.0975
"521","38105","uU1VzLHvpUGHrguivbeFBQ","Mollie Fontaine Lounge",FALSE,197,4.5,2,13797.2138986289,35.14425,-90.03806,"Memphis","TN",0.07,0.0225,0.005,0,0.0975
"522","38129","kgOvFJYiOqxKNG9oFpd5FA","Blue Plate Cafe-Downtown",FALSE,427,4,1,13149.2931955287,35.1455019198834,-90.0521567623653,"Memphis","TN",NA,NA,NA,NA,NA
"523","38103","sQDYdbzPqpKSbKqQ8gh3qA","Bardog Tavern",FALSE,283,4,2,13221.7233079994,35.14421,-90.05404,"Memphis","TN",0.07,0.0225,0.005,0,0.0975
"524","38104","m6jRlQTEFV6SWThsOR627w","Mot & Ed's Southern Eatery",FALSE,175,4.5,1,15290.0740881916,35.1390178,-90.0160138,"Memphis","TN",0.07,0.0225,0.005,0,0.0975
"525","38103","xPYIVkynCuiHLLQcU72--w","Huey's Downtown",FALSE,313,4,2,13410.7081833127,35.1426327,-90.0526228,"Memphis","TN",0.07,0.0225,0.005,0,0.0975
"526","38126","CDmiU-EtRLgfAhkq0q-6kw","LUNCHBOXeats",FALSE,202,4,2,14163.3807530675,35.13652,-90.04957,"Memphis","TN",0.07,0.0225,0.005,0,0.0975
"527","38103","7TmjaB4_4ADgFAdfGxxyNQ","The Little Tea Shop",FALSE,131,4.5,1,13203.9691408792,35.1443517612717,-90.0541045027223,"Memphis","TN",0.07,0.0225,0.005,0,0.0975
"528","38103","SNAewj3x7YxhvDjn1dv9zQ","Sabor Caribe",FALSE,78,5,2,14020.7018642087,35.1417177882761,-90.0388989913647,"Memphis","TN",0.07,0.0225,0.005,0,0.0975
"529","38103","kFrFa_zIHK_9GHA4wAdP7A","Alcenia's Desserts & Preserves Shop",FALSE,150,4,2,12406.3003225373,35.1536026000977,-90.0496978759766,"Memphis","TN",0.07,0.0225,0.005,0,0.0975
"530","38105","Ht8JI0Jv-_Zz6TDiISARTA","The Office at Uptown",FALSE,45,5,1,11903.2599336191,35.1604299230626,-90.0452160090208,"Memphis","TN",0.07,0.0225,0.005,0,0.0975
"531","38103","auS1ZQT1Haonomb7jKvB2w","Texas de Brazil",FALSE,279,4,3,13511.2360841231,35.1418763496706,-90.0525601179612,"Memphis","TN",0.07,0.0225,0.005,0,0.0975
"532","38103","XBI8RHYPQcr86bJDsWFp6Q","Flying Saucer Draught Emporium",FALSE,303,4,2,13585.2298765289,35.1409321,-90.0533079,"Memphis","TN",0.07,0.0225,0.005,0,0.0975
"533","38103","-ZVcMNzgeVH7WGApuPfJhg","Cafe Keough",FALSE,202,4,2,13201.3024392384,35.1448346,-90.0527796,"Memphis","TN",0.07,0.0225,0.005,0,0.0975
"534","38103","FkbQIv0niIUsyyyDisU6Hw","Catherine and Mary's",FALSE,191,4,3,13788.1700725614,35.138245,-90.055823,"Memphis","TN",0.07,0.0225,0.005,0,0.0975
"535","38103","z-x3DA2__0AvYcd5Wyaeqg","Grecian Gourmet Taverna",FALSE,65,4.5,2,14032.0126293085,35.1352057,-90.0582467,"Memphis","TN",0.07,0.0225,0.005,0,0.0975
"536","38103","6ZlFEgOTDmdaAmo_upc3Bg","Evelyn & Olive",FALSE,206,4,2,13978.9354385134,35.1417507,-90.0398791,"Memphis","TN",0.07,0.0225,0.005,0,0.0975
"537","38103","WzbVx_0cXTKPtZsufw0qpQ","Miss Polly's Soul City Cafe",FALSE,316,3.5,2,13707.1094764774,35.1399366,-90.0528454,"Memphis","TN",0.07,0.0225,0.005,0,0.0975
"538","38103","lO5f79sJN1-RVeS_EXAszA","High Cotton Brewing Co. Taproom",FALSE,100,4.5,1,13975.4793461268,35.1407937705517,-90.040290132165,"Memphis","TN",0.07,0.0225,0.005,0,0.0975
"539","38103","aT7CsXd75zq0JQTNetydIw","Dyer's Burgers",FALSE,423,3.5,2,13816.3010018074,35.1393548,-90.0513645,"Memphis","TN",0.07,0.0225,0.005,0,0.0975
"540","38103","Xk8rj8Ref5dhqm7CpXLxpw","Pontotoc",FALSE,133,4,2,13820.9355465311,35.137742656676,-90.0564952085183,"Memphis","TN",0.07,0.0225,0.005,0,0.0975
"541","38103","U1_DrqTY3wbcXv9XCKmOpA","Robusto by Havana Mix",FALSE,73,4.5,2,13724.4337341557,35.14034,-90.0509195,"Memphis","TN",0.07,0.0225,0.005,0,0.0975
"542","38103","FA5_JmeuF8c5towg33TARw","99 Cent Soul Food Express",FALSE,139,4,2,14048.7173259726,35.13514,-90.05815,"Memphis","TN",0.07,0.0225,0.005,0,0.0975
"543","38103","c0cEyQUX-LlRlR3inZt68A","Havana's Pilon",FALSE,136,4,1,13264.3269579036,35.1446457,-90.0512543,"Memphis","TN",0.07,0.0225,0.005,0,0.0975
"544","38103","y5jY357Szi9uscU21Ez8KA","The Brass Door",FALSE,142,4,2,13251.8947976781,35.14493,-90.05092,"Memphis","TN",0.07,0.0225,0.005,0,0.0975
"545","38103","0bFjk_9jWxni0dp4XVnPMw","Cafe Eclectic",FALSE,118,4,1,11488.5184934533,35.161081,-90.0539155,"Memphis","TN",0.07,0.0225,0.005,0,0.0975
"546","38103","GyBn_dTPKmFelB44OPxgIw","Qahwa Coffee Bar",FALSE,94,4.5,1,12897.9827281319,35.14807,-90.05182,"Memphis","TN",0.07,0.0225,0.005,0,0.0975
"547","38104","e-a7h03QI9Qcs-jDpq4Eow","Little Italy Pizza",FALSE,192,4,1,15787.5240423944,35.13593,-90.01149,"Memphis","TN",0.07,0.0225,0.005,0,0.0975
"548","38103","c8VTMclg6togkKwu2PxwNA","The Gray Canary",FALSE,105,4,3,13676.6556040925,35.13854,-90.05837,"Memphis","TN",0.07,0.0225,0.005,0,0.0975
"549","38103","WwQ-1_UgGLHRZ26l-3j7tQ","Automatic Slim's",FALSE,357,3.5,2,13421.2481133442,35.1427459716797,-90.0526962280273,"Memphis","TN",0.07,0.0225,0.005,0,0.0975
"550","38103","o_KvDfOLLlNKla4e7dwaTQ","Central BBQ",FALSE,1693,4,2,6958.86918399428,35.13381,-90.05716,"Memphis","TN",0.07,0.0225,0.005,0,0.0975
"551","38103","fXNKxZh10GEnTVJtvAQ7-w","Rizzos by Michael Patrick",FALSE,236,4.5,2,6834.33521020182,35.13396,-90.05866,"Memphis","TN",0.07,0.0225,0.005,0,0.0975
"552","38103","e7S8WlWOnxis1BNmXSkwDA","Earnestine & Hazel's Bar & Grill",FALSE,219,4.5,1,6763.56414387839,35.1329612731934,-90.0592880249023,"Memphis","TN",0.07,0.0225,0.005,0,0.0975
"553","38103","-jOpCR0t5w9pzdNyakt-sw","Makedas Homemade Butter Cookies",FALSE,74,5,1,7040.70782798354,35.1338612,-90.0562979,"Memphis","TN",0.07,0.0225,0.005,0,0.0975
"554","38103","FBF0cvF0YFi6uxKNNi0HPA","Arcade Restaurant",FALSE,621,3.5,1,6815.10596673461,35.132683,-90.058811,"Memphis","TN",0.07,0.0225,0.005,0,0.0975
"555","38103","eUIyzUyofRJdQmmluUEiTg","The Cheesecake Corner",FALSE,262,4,2,6846.03799132511,35.1326681,-90.0584739,"Memphis","TN",0.07,0.0225,0.005,0,0.0975
"556","38103","AfcG2e9nCqfBJLStXkHc1Q","Loflin Yard",FALSE,151,4,2,6552.13350817609,35.1280326843262,-90.0620803833008,"Memphis","TN",0.07,0.0225,0.005,0,0.0975
"557","38103","eBvC1gEAhrq5byd_-4FfAg","Chez Philippe",FALSE,76,4.5,4,7485.49231022741,35.1418991088867,-90.0520172119141,"Memphis","TN",0.07,0.0225,0.005,0,0.0975
"558","71854","DBhoYNcWCTefe0XSiEOipw","Los Ruvalcaba Mexican Restaurant",FALSE,68,4.5,1,7912.90984535454,33.46563,-94.04228,"Texarkana","AR",0.065,0.0125,0.025,0,0.1025
"559","71854","4cg4ztrwJOZNu39vNfT22Q","Meomyo's Bayou Cafe",FALSE,25,4.5,2,8325.02633124072,33.462891,-94.029968,"Texarkana","AR",0.065,0.0125,0.025,0,0.1025
"560","71854","HMI7poBS0x7RWfmnx9wWpg","Verona",FALSE,44,4.5,2,12761.5498301611,33.4220064173058,-94.0412749350071,"Texarkana","AR",0.065,0.0125,0.025,0,0.1025
"561","71854","ZHPLGbqGQF1sIqWPPwzTRg","Hopkins Icehouse",FALSE,67,4,2,12581.5313019271,33.4236265485397,-94.0412384087885,"Texarkana","AR",0.065,0.0125,0.025,0,0.1025
"562","71854","bmulXy4P6LLXr4ntu7Z9Jw","Pops Place",FALSE,33,4.5,2,9143.05391434543,33.4862972795963,-93.9655662328005,"Texarkana","AR",0.065,0.0125,0.025,0,0.1025
"563","71854","MGEKO9amma3o8LGUBrMAiQ","Johnny B's",FALSE,55,4.5,2,12403.8265567068,33.4252156565934,-94.0417430193774,"Texarkana","AR",0.065,0.0125,0.025,0,0.1025
"564","71854","T_XquRHCTxEqRW3C2z0M7Q","Cattleman's Steak House",FALSE,38,3.5,2,8197.3094252854,33.4630402255347,-94.0425410275123,"Texarkana","AR",0.065,0.0125,0.025,0,0.1025
"565","71854","DCfAD7PuWuSTPs5s5BnJJg","Old Tyme Burger Shoppe",FALSE,24,4,1,8514.87211493216,33.461149,-94.029843,"Texarkana","AR",0.065,0.0125,0.025,0,0.1025
"566","71854","f_7hQTuHk8L-_pctmvwSdQ","Tlc Burgers & Fries",FALSE,29,4.5,1,12740.7722323767,33.42222,-94.04186,"Texarkana","AR",0.065,0.0125,0.025,0,0.1025
"567","71854","z7979X5NDKLc5joH2_KGtw","Fat Jacks Oyster & Sports",FALSE,43,3.5,2,9069.72043725766,33.455188,-94.042843,"Texarkana","AR",0.065,0.0125,0.025,0,0.1025
"568","75501","hvLFDyRFTWTlYzUcUxUFyQ","Zapata",FALSE,64,4,2,12607.9694008526,33.42341,-94.04031,"Texarkana","AR",0.0625,0.005,0.015,0,0.0825
"569","71854","ge1ue3yP51MSHIuY8ba8lA","Starbucks",FALSE,16,4.5,2,8369.01135877777,33.461492,-94.042756,"Texarkana","AR",0.065,0.0125,0.025,0,0.1025
"570","71854","wg7SzFcf27fQaHBigBMOXg","Joe's Pizza & Pasta Italian Restaurant",FALSE,41,4,2,12481.467876156,33.4245011753284,-94.0429403426431,"Texarkana","AR",0.065,0.0125,0.025,0,0.1025
"571","71854","V8f7gOit14LtKUY-f7BEhQ","Whataburger",FALSE,47,3,1,8095.2452358851,33.4639551759998,-94.0427172967111,"Texarkana","AR",0.065,0.0125,0.025,0,0.1025
"572","71854","_cKlAU2C1wqA_QTESh2tsw","El Chico",FALSE,35,3,2,7501.46586609552,33.4694752789396,-94.0383553010158,"Texarkana","AR",0.065,0.0125,0.025,0,0.1025
"573","71854","Itn4BBIMtk2m_9wIyOybsA","Sue N Carol's Restaurant",FALSE,19,4.5,2,11564.9961972243,33.43275,-94.0427,"Texarkana","AR",0.065,0.0125,0.025,0,0.1025
"574","71854","GpJWQL8E7Le0Hw8BLWudlA","Big Jakes Bar-B-Que",FALSE,21,4,2,8568.09438350998,33.46115,-94.02676,"Texarkana","AR",0.065,0.0125,0.025,0,0.1025
"575","71822","KnBN54QUc0igP17OX6Q2NQ","Big Jake's Bar-B-Que",FALSE,8,4,2,14147.95730736,33.67269,-94.12951,"Ashdown","AR",0.065,0.02875,0.02,0,0.11375
"576","71822","vxtT9WT57z431ZC8lu6p6g","Jerry's Drive-In",FALSE,7,3.5,2,13562.0413857247,33.65978,-94.11695,"Ashdown","AR",0.065,0.02875,0.02,0,0.11375
"577","71822","RdF9jCsSXkSsHKiTIFixnA","Herb's",FALSE,9,3,1,13842.1478588987,33.664589,-94.119968,"Ashdown","AR",0.065,0.02875,0.02,0,0.11375
"578","71822","kr4Hf66HNoFtfTMb_Gq_Lg","McDonald's",FALSE,4,3.5,1,13559.4348364381,33.65926,-94.116131,"Ashdown","AR",0.065,0.02875,0.02,0,0.11375
"579","71822","CHZ2lU1l3tmE2o8b48tU8A","Sonic Drive-In",FALSE,3,3,1,13651.9034658379,33.6617843,-94.1186637,"Ashdown","AR",0.065,0.02875,0.02,0,0.11375
"580","71822","fRn3tcBnCNMUH3FjwRTzgQ","Pizza Hut",FALSE,1,1,1,13608.095983831,33.6607247807354,-94.117673,"Ashdown","AR",0.065,0.02875,0.02,0,0.11375
"581","71822","fkKbO5vKWbKAB5nGCiXuQg","Burger King",FALSE,1,1,1,13722.3865546043,33.663625,-94.120541,"Ashdown","AR",0.065,0.02875,0.02,0,0.11375
"582","92283","yUbvnwLt_2FqxuZrWMgh8Q","Ironwood Steak House",FALSE,32,3.5,3,1668.52058132742,32.741321,-114.722641,"Winterhaven","CA",0.06,0.0025,0,0.015,0.0775
"583","85334","-2JBz4oJf2CL3AolpVQbZQ","76 gas station",FALSE,24,5,2,14953.1195837479,33.6045810487052,-114.526238182427,"Ehrenberg","AZ",0.056,0.02,0,0,0.076
"584","85334","dTybZX4Q3YL3rVVuQk1xlw","River Run Grill Pizza",FALSE,68,3.5,1,15825.5266984248,33.609482,-114.517223,"Ehrenberg","AZ",0.056,0.02,0,0,0.076
"585","85334","3IqBTku5rOK6iJw1ciHkbg","Wendy's",FALSE,42,3,1,14820.9651227765,33.601732,-114.522814,"Ehrenberg","AZ",0.056,0.02,0,0,0.076
"586","85334","A2zIqz_6QeApY1tbvU9BcA","Cinnabon",FALSE,3,3.5,2,14851.4802710253,33.601481,-114.521585,"Ehrenberg","AZ",0.056,0.02,0,0,0.076
"587","85344","RSczdhh62wmC0_orIBAlrA","Tierra Caliente",FALSE,97,5,1,4383.06781199441,34.15076,-114.29109,"Parker","AZ",0.056,0.02,0,0,0.076
"588","85344","fmMCOCNp869LdKdjcgVppQ","Lily's Mexican Food",FALSE,96,4.5,1,4308.2474975669,34.14816,-114.29104,"Parker","AZ",0.056,0.02,0,0,0.076
"589","85344","YdKq4xaRnhMP0MqspCimeQ","Big Bellie Subs",FALSE,83,4.5,1,5370.22995551517,34.154217,-114.281237,"Parker","AZ",0.056,0.02,0,0,0.076
"590","85344","X36I3P_KNEPw158cUHcqbw","Crossroads Cafe",FALSE,169,4,2,4453.78148653556,34.15405,-114.2918,"Parker","AZ",0.056,0.02,0,0,0.076
"591","85344","JZI910g1hWIf7ykHV46FEg","Mayas' Restaurant & Sports Cantina",FALSE,166,4,2,4866.21417154982,34.151346,-114.285858,"Parker","AZ",0.056,0.02,0,0,0.076
"592","85344","hewlBHFYlXIeoDM01kKg-A","China Garden",FALSE,81,4,2,4668.2255915282,34.1508574783802,-114.28764604032,"Parker","AZ",0.056,0.02,0,0,0.076
"593","85344","UCLyqgY-afLW3bdKnP8FzQ","El Sarape Restaurant",FALSE,126,3.5,2,5353.64257779006,34.153893,-114.2804915,"Parker","AZ",0.056,0.02,0,0,0.076
"594","85344","Bqu5yonouNWEp_RPc9xfzA","Early Bird Coffee Shop",FALSE,38,4,1,4492.69105769767,34.15123,-114.28985,"Parker","AZ",0.056,0.02,0,0,0.076
"595","85344","gzsd26HVGvXFWYVqsmcQ9Q","Ruperto's Mexican Food",FALSE,80,3.5,1,4677.64026778621,34.1512344353578,-114.287965415947,"Parker","AZ",0.056,0.02,0,0,0.076
"596","85344","MPzFxTaigLpfTni9T0bZrg","Stark Family Bakery",FALSE,19,4.5,1,4476.40409076903,34.15257,-114.29101,"Parker","AZ",0.056,0.02,0,0,0.076
"597","85344","m81pZdGffdP2kWm1He7RwQ","La Piazza Pizza",FALSE,54,3.5,1,4684.75174056663,34.14989,-114.28699,"Parker","AZ",0.056,0.02,0,0,0.076
"598","85344","wcCuqDQCNXiaacIYqhQIog","Coffee Ern's",FALSE,23,3.5,1,4778.86803680261,34.142695,-114.284674,"Parker","AZ",0.056,0.02,0,0,0.076
"599","85344","6cw9mCUTrqcVKRy9exs0Lg","River Willow",FALSE,27,4,2,7124.04540688551,34.1665898565255,-114.266871887337,"Parker","AZ",0.056,0.02,0,0,0.076
"600","85344","OhYWRkkksZsMiixtM99qmQ","Safeway Food & Drug",FALSE,17,3.5,1,5866.62948605493,34.15579,-114.27612,"Parker","AZ",0.056,0.02,0,0,0.076
"601","85344","Hhl7ljvYghbzjm3yjEhUIw","Subway",FALSE,8,4,1,5724.45516116169,34.1549326092917,-114.277463019721,"Parker","AZ",0.056,0.02,0,0,0.076
"602","85344","YmSHQCnHAh9uI9NnQJF-BA","Domino's Pizza",FALSE,11,3.5,1,4989.04724427619,34.1525296,-114.2843908,"Parker","AZ",0.056,0.02,0,0,0.076
"603","85344","bReisKNsC1ydrLi0_CJt2g","Pizza Hut",FALSE,13,3,1,4524.20002302875,34.1499861,-114.2892418,"Parker","AZ",0.056,0.02,0,0,0.076
"604","85344","57mfvKgUT7JXUw2lGL-g5Q","McDonald's",FALSE,25,2,1,5665.79783344002,34.1545581683094,-114.277982711792,"Parker","AZ",0.056,0.02,0,0,0.076
"605","85344","cNS0aOK2gCqM7ootBY-n3Q","Rivers Edge Cantina",FALSE,27,2.5,1,6962.73403760136,34.1635532,-114.2670953,"Parker","AZ",0.056,0.02,0,0,0.076
"606","85344","Mbbpv-expQksQY3Ej41vmw","Taco Bell",FALSE,23,2,1,5781.06809330375,34.15524,-114.27694,"Parker","AZ",0.056,0.02,0,0,0.076
"607","85344","FHca9kFvkEdxN917U9XUPw","Burger King",FALSE,25,1.5,1,4778.37358724349,34.151068,-114.286722,"Parker","AZ",0.056,0.02,0,0,0.076
"608","85344","DZOgU-w7iYUQsOLSmvYZBQ","Circle K",FALSE,2,4,2,4666.19851950097,34.1452,-114.28613,"Parker","AZ",0.056,0.02,0,0,0.076
"609","85344","504ZBk7J5vs63WIoyvwK_A","JA Johnny's Cafe",FALSE,70,4.5,1,7621.56730958851,34.1964121222845,-114.22255701869,"Parker","AZ",0.056,0.02,0,0,0.076
"610","85344","rAYOX-olgQfYq41KeZJIaw","Mi Tierra",FALSE,47,4.5,1,6846.31684021707,34.1843385327388,-114.225589446723,"Parker","AZ",0.056,0.02,0,0,0.076
"611","85344","vjbx5lpoiJaDcaFVW9otkg","Stroke's Bar & Grill",FALSE,102,3.5,2,10399.2890491546,34.2166108447507,-114.201872348785,"Parker","AZ",0.056,0.02,0,0,0.076
"612","85344","L_x_9RN9oNCXs--MvoAm6g","Bobby D's Diner",FALSE,44,3.5,1,6790.50803252507,34.18395,-114.22605,"Parker","AZ",0.056,0.02,0,0,0.076
"613","85344","r_ifv0D8RV3UTFClw7t02g","The Bar",FALSE,14,5,1,6860.14275052671,34.1852149963379,-114.225784301758,"Parker","AZ",0.056,0.02,0,0,0.076
"614","85344","MUE1BRm41AfNTrSTwnezcw","Al's Sandbar",FALSE,1,2,2,6764.17743495841,34.1827774047852,-114.225654602051,"Parker","AZ",0.056,0.02,0,0,0.076
"615","85344","ijPETtUzYLxKK8oqEjW8qQ","Circle K",FALSE,1,1,1,7975.3847795215,34.1995825976506,-114.220231130426,"Parker","AZ",0.056,0.02,0,0,0.076
"616","85344","8HwJcgrJawVZ4wzeQFkXYA","Pirate's Den Bar & Grill",FALSE,140,3.5,2,9721.86111728921,34.225041,-114.19078,"Parker","AZ",0.056,0.02,0,0,0.076
"617","85344","jyFHvRWWYELzlwRQV0Y9sg","Club Roadrunner",FALSE,76,4,2,10284.7349500926,34.2318377444036,-114.187463857234,"Parker","AZ",0.056,0.02,0,0,0.076
"618","85344","zgqKpAn-4JyXFkud9lNvZw","Roadrunner Floating Dock Bar",FALSE,25,4.5,1,10281.2629296019,34.2319391979358,-114.187604673207,"Parker","AZ",0.056,0.02,0,0,0.076
"619","85344","Mbn2tOoRHmSSHjM1eQ3QlA","Black Pearl Restaurant",FALSE,80,3.5,2,9004.50695007495,34.2233043654226,-114.197146761422,"Parker","AZ",0.056,0.02,0,0,0.076
"620","85344","ilwesdreX1Y-ypSg9jdj8A","The Desert Bar",FALSE,89,4.5,1,3877.42812964286,34.2004447595411,-114.169921875,"Parker","AZ",0.056,0.02,0,0,0.076
"621","85344","mlcZPIQGHm-HIN8FO206YA","Foxs RV Resort",FALSE,63,3.5,1,2813.25866061636,34.244917,-114.173206,"Parker","AZ",0.056,0.02,0,0,0.076
"622","85344","y8Z2D4ZIc2RL_CDes_JnIg","The Sundance Saloon",FALSE,29,3,1,3042.83460866356,34.247231,-114.172421,"Parker","AZ",0.056,0.02,0,0,0.076
"623","85344","ZMrp4W63VohHNQBqx4HmYw","The Springs Water Front Dining",FALSE,47,4,2,9904.47886954563,34.295374,-114.125487,"Parker","AZ",0.056,0.02,0,0,0.076
"624","85344","on8X15o3UMiuMpX0kzfDbQ","Parker Dam Diner & Deli",FALSE,17,4,1,8391.15489794326,34.282452,-114.132763,"Parker","AZ",0.056,0.02,0,0,0.076
"625","85344","-4Gbr_x1At_U-ZPoG703cw","Outer Harbor",FALSE,12,4.5,1,9856.43118236695,34.295942,-114.127104,"Parker","AZ",0.056,0.02,0,0,0.076
"626","86403","R-OMsY6FYuyySUFVuW621Q","College Street Brewhouse & Pub",FALSE,501,4,2,2928.56564450658,34.5078814633861,-114.346438256705,"Lake Havasu City","AZ",0.056,0,0.02,0,0.076
"627","86403","UGU0IZ9Ww_Bq6Mi0eDh3uQ","Cha Bones",FALSE,514,4,2,4320.82062398968,34.47502,-114.35031,"Lake Havasu City","AZ",0.056,0,0.02,0,0.076
"628","86403","qzgnLtmGsXbng36QW0TgXw","Juicy's ""The Place with the Great Food""",FALSE,541,4,2,5419.01205805355,34.475738,-114.332248,"Lake Havasu City","AZ",0.056,0,0.02,0,0.076
"629","86403","a3-O2jlmdCDKujSbJicEtw","La Vita Dolce Italian Bistro and Lounge",FALSE,352,4.5,2,5464.14121805709,34.46758,-114.34129,"Lake Havasu City","AZ",0.056,0,0.02,0,0.076
"630","86403","B-ZYXkPxMmWVOvjmYPaAdw","Angelina's Italian Kitchen",FALSE,272,4,2,3352.09573188852,34.48514,-114.35212,"Lake Havasu City","AZ",0.056,0,0.02,0,0.076
"631","86403","os3dV8b2g7AkAbe8PQwchw","Place To Be Bistro",FALSE,171,4.5,2,5292.34905760248,34.46885,-114.34268,"Lake Havasu City","AZ",0.056,0,0.02,0,0.076
"632","86403","62Gv4t82DgU6Y0w_OLcu2A","The Red Onion",FALSE,413,4,2,5426.65925951737,34.4766006,-114.3316203,"Lake Havasu City","AZ",0.056,0,0.02,0,0.076
"633","86403","2-zljwjdwXwt1IuERc_rgw","Rusty's Restaurant",FALSE,165,4,2,2857.05383824509,34.502626330712,-114.347473718226,"Lake Havasu City","AZ",0.056,0,0.02,0,0.076
"634","86403","Zh-4d9XAwysyXpTeJdjLfQ","Shugrue's Restaurant & Bar",FALSE,371,4,2,4689.55527074506,34.47146,-114.34994,"Lake Havasu City","AZ",0.056,0,0.02,0,0.076
"635","86403","fw2M_W0mLcrlA6a_MQyvkw","Black Bear Diner",FALSE,288,4,2,5097.11988400632,34.4772230280722,-114.335308546869,"Lake Havasu City","AZ",0.056,0,0.02,0,0.076
"636","86403","rzUnHRGN3sRmb_Y1swNgng","India Spice N Bar",FALSE,110,4.5,2,3435.19217706637,34.485645,-114.350426,"Lake Havasu City","AZ",0.056,0,0.02,0,0.076
"637","86403","J80YNJxmhcuxBCDt4yWcTA","Chico's Tacos",FALSE,246,4,1,4647.70714418054,34.476451,-114.342796,"Lake Havasu City","AZ",0.056,0,0.02,0,0.076
"638","86403","s0-z99JyzbI8L2cPQyw4wQ","Rebel BBQ",FALSE,249,4.5,2,6046.8629043731,34.47599,-114.32342,"Lake Havasu City","AZ",0.056,0,0.02,0,0.076
"639","86403","CEpiUvK0m0Xpvcm-WYnOjg","El Paraiso Family Mexican Restaurant",FALSE,151,4,2,3481.53189133878,34.4852,-114.35021,"Lake Havasu City","AZ",0.056,0,0.02,0,0.076
